{"type":"FeatureCollection","features":[{"type":"Feature","properties":{"parent_code":"7209","parent_name":"Tojo Una Una","code":"","name":"Walea Kepulauan","kind":"District"},"geometry":{"type":"Point","coordinates":[122.19441511700006,-0.261853485499955]},"id":null},{"type":"Feature","properties":{"parent_code":"7209","parent_name":"Tojo Una Una","code":"","name":"Ampana Tete","kind":"District"},"geometry":{"type":"Point","coordinates":[121.85146429700006,-1.065070771999956]},"id":null},{"type":"Feature","properties":{"parent_code":"7209","parent_name":"Tojo Una Una","code":"","name":"Una Una","kind":"District"},"geometry":{"type":"Point","coordinates":[121.74669274650006,-0.330510855999961]},"id":null},{"type":"Feature","properties":{"parent_code":"7209","parent_name":"Tojo Una Una","code":"","name":"Togean","kind":"District"},"geometry":{"type":"Point","coordinates":[121.9481426800001,-0.3793484914999685]},"id":null},{"type":"Feature","properties":{"parent_code":"7209","parent_name":"Tojo Una Una","code":"","name":"Tojo Barat","kind":"District"},"geometry":{"type":"Point","coordinates":[121.01132128600005,-1.525036872499953]},"id":null},{"type":"Feature","properties":{"parent_code":"7209","parent_name":"Tojo Una Una","code":"","name":"Tojo","kind":"District"},"geometry":{"type":"Point","coordinates":[121.28120252550008,-1.3207281249999596]},"id":null},{"type":"Feature","properties":{"parent_code":"7209","parent_name":"Tojo Una Una","code":"","name":"Ampana Kota","kind":"District"},"geometry":{"type":"Point","coordinates":[121.53149750650005,-0.939437070999958]},"id":null},{"type":"Feature","properties":{"parent_code":"7209","parent_name":"Tojo Una Una","code":"","name":"Ulubongka","kind":"District"},"geometry":{"type":"Point","coordinates":[121.63960547800002,-1.17246969149997]},"id":null},{"type":"Feature","properties":{"parent_code":"7209","parent_name":"Tojo Una Una","code":"","name":"Walea Besar","kind":"District"},"geometry":{"type":"Point","coordinates":[122.3136413850001,-0.298298163999959]},"id":null},{"type":"Feature","properties":{"parent_code":"7209","parent_name":"Tojo Una Una","code":"","name":"Ratolindo","kind":"District"},"geometry":{"type":"Point","coordinates":[121.61574532600002,-0.914826159499938]},"id":null},{"type":"Feature","properties":{"parent_code":"7209","parent_name":"Tojo Una Una","code":"","name":"Batudaka","kind":"District"},"geometry":{"type":"Point","coordinates":[121.72687922750004,-0.508239264999929]},"id":null},{"type":"Feature","properties":{"parent_code":"7209","parent_name":"Tojo Una Una","code":"","name":"Talatako","kind":"District"},"geometry":{"type":"Point","coordinates":[122.08454442200008,-0.3573905729999465]},"id":null}]}