{"type":"FeatureCollection","features":[{"type":"Feature","properties":{"parent_code":"7211","parent_name":"Banggai Laut","code":"","name":"Banggai Selatan","kind":"District"},"geometry":{"type":"Point","coordinates":[123.55297348600004,-1.7054806984999404]},"id":null},{"type":"Feature","properties":{"parent_code":"7211","parent_name":"Banggai Laut","code":"","name":"Banggai Tengah","kind":"District"},"geometry":{"type":"Point","coordinates":[123.49892317950003,-1.6573447959999617]},"id":null},{"type":"Feature","properties":{"parent_code":"7211","parent_name":"Banggai Laut","code":"","name":"Bangkurung","kind":"District"},"geometry":{"type":"Point","coordinates":[123.24955963100007,-1.952226366999952]},"id":null},{"type":"Feature","properties":{"parent_code":"7211","parent_name":"Banggai Laut","code":"","name":"Labobo","kind":"District"},"geometry":{"type":"Point","coordinates":[123.31838619700005,-1.781610616499961]},"id":null},{"type":"Feature","properties":{"parent_code":"7211","parent_name":"Banggai Laut","code":"","name":"Banggai Utara","kind":"District"},"geometry":{"type":"Point","coordinates":[123.5168200120001,-1.5150105859999594]},"id":null},{"type":"Feature","properties":{"parent_code":"7211","parent_name":"Banggai Laut","code":"","name":"Bokan Kepulauan","kind":"District"},"geometry":{"type":"Point","coordinates":[123.82328380900009,-1.9565906444999546]},"id":null},{"type":"Feature","properties":{"parent_code":"7211","parent_name":"Banggai Laut","code":"","name":"Banggai","kind":"District"},"geometry":{"type":"Point","coordinates":[123.53745429550008,-1.601348438999963]},"id":null}]}