{"type":"FeatureCollection","features":[{"type":"Feature","properties":{"parent_code":"7271","parent_name":"Kota Palu","code":"","name":"Mantikulore","kind":"District"},"geometry":{"type":"Point","coordinates":[119.95634662300012,-0.8527577609999639]},"id":null},{"type":"Feature","properties":{"parent_code":"7271","parent_name":"Kota Palu","code":"","name":"Tatanga","kind":"District"},"geometry":{"type":"Point","coordinates":[119.85274807850004,-0.9236338199999635]},"id":null},{"type":"Feature","properties":{"parent_code":"7271","parent_name":"Kota Palu","code":"","name":"Tawaeli","kind":"District"},"geometry":{"type":"Point","coordinates":[119.89047394450012,-0.698973253499929]},"id":null},{"type":"Feature","properties":{"parent_code":"7271","parent_name":"Kota Palu","code":"","name":"Palu Timur","kind":"District"},"geometry":{"type":"Point","coordinates":[119.87390712400003,-0.896416529999954]},"id":null},{"type":"Feature","properties":{"parent_code":"7271","parent_name":"Kota Palu","code":"","name":"Palu Utara","kind":"District"},"geometry":{"type":"Point","coordinates":[119.88244313200005,-0.7802047754999535]},"id":null},{"type":"Feature","properties":{"parent_code":"7271","parent_name":"Kota Palu","code":"","name":"Ulujadi","kind":"District"},"geometry":{"type":"Point","coordinates":[119.80367881800004,-0.8533545504999436]},"id":null},{"type":"Feature","properties":{"parent_code":"7271","parent_name":"Kota Palu","code":"","name":"Palu Barat","kind":"District"},"geometry":{"type":"Point","coordinates":[119.84910603850005,-0.8960722484999625]},"id":null},{"type":"Feature","properties":{"parent_code":"7271","parent_name":"Kota Palu","code":"","name":"Palu Selatan","kind":"District"},"geometry":{"type":"Point","coordinates":[119.90542489600006,-0.9263693539999736]},"id":null}]}