{"type":"FeatureCollection","features":[{"type":"Feature","properties":{"parent_code":"5303","parent_name":"Timor Tengah Utara","code":"","name":"Biboki Utara","kind":"District"},"geometry":{"type":"Point","coordinates":[124.80639320400007,-9.295156938499957]},"id":null},{"type":"Feature","properties":{"parent_code":"5303","parent_name":"Timor Tengah Utara","code":"","name":"Biboki Anleu","kind":"District"},"geometry":{"type":"Point","coordinates":[124.73955054150008,-9.146023745999969]},"id":null},{"type":"Feature","properties":{"parent_code":"5303","parent_name":"Timor Tengah Utara","code":"","name":"Noemuti","kind":"District"},"geometry":{"type":"Point","coordinates":[124.49288603000008,-9.599363517499967]},"id":null},{"type":"Feature","properties":{"parent_code":"5303","parent_name":"Timor Tengah Utara","code":"","name":"Kota Kefamenanu","kind":"District"},"geometry":{"type":"Point","coordinates":[124.49378972450006,-9.468276709999941]},"id":null},{"type":"Feature","properties":{"parent_code":"5303","parent_name":"Timor Tengah Utara","code":"","name":"Insana","kind":"District"},"geometry":{"type":"Point","coordinates":[124.69587757950006,-9.472724066999973]},"id":null},{"type":"Feature","properties":{"parent_code":"5303","parent_name":"Timor Tengah Utara","code":"","name":"Insana Utara","kind":"District"},"geometry":{"type":"Point","coordinates":[124.54173957950003,-9.247180349999951]},"id":null},{"type":"Feature","properties":{"parent_code":"5303","parent_name":"Timor Tengah Utara","code":"","name":"Miomafo Barat","kind":"District"},"geometry":{"type":"Point","coordinates":[124.33327205000006,-9.54734535649996]},"id":null},{"type":"Feature","properties":{"parent_code":"5303","parent_name":"Timor Tengah Utara","code":"","name":"Biboki Selatan","kind":"District"},"geometry":{"type":"Point","coordinates":[124.69513154400005,-9.340261079499953]},"id":null},{"type":"Feature","properties":{"parent_code":"5303","parent_name":"Timor Tengah Utara","code":"","name":"Miomafo Timur","kind":"District"},"geometry":{"type":"Point","coordinates":[124.48965941800003,-9.380480061999947]},"id":null},{"type":"Feature","properties":{"parent_code":"5303","parent_name":"Timor Tengah Utara","code":"","name":"Bikomi Utara","kind":"District"},"geometry":{"type":"Point","coordinates":[124.41247157150008,-9.375022662499958]},"id":null},{"type":"Feature","properties":{"parent_code":"5303","parent_name":"Timor Tengah Utara","code":"","name":"Naibenu","kind":"District"},"geometry":{"type":"Point","coordinates":[124.48340970800007,-9.267499804999972]},"id":null},{"type":"Feature","properties":{"parent_code":"5303","parent_name":"Timor Tengah Utara","code":"","name":"Bikomi Tengah","kind":"District"},"geometry":{"type":"Point","coordinates":[124.41508159650004,-9.432983843499965]},"id":null},{"type":"Feature","properties":{"parent_code":"5303","parent_name":"Timor Tengah Utara","code":"","name":"Bikomi Nilulat","kind":"District"},"geometry":{"type":"Point","coordinates":[124.3483832980001,-9.459239764499955]},"id":null},{"type":"Feature","properties":{"parent_code":"5303","parent_name":"Timor Tengah Utara","code":"","name":"Insana Fafinesu","kind":"District"},"geometry":{"type":"Point","coordinates":[124.5790515060001,-9.340413376999976]},"id":null},{"type":"Feature","properties":{"parent_code":"5303","parent_name":"Timor Tengah Utara","code":"","name":"Noemuti Timur","kind":"District"},"geometry":{"type":"Point","coordinates":[124.59348799250006,-9.590339139499946]},"id":null},{"type":"Feature","properties":{"parent_code":"5303","parent_name":"Timor Tengah Utara","code":"","name":"Mutis","kind":"District"},"geometry":{"type":"Point","coordinates":[124.19045048250007,-9.462950539499957]},"id":null},{"type":"Feature","properties":{"parent_code":"5303","parent_name":"Timor Tengah Utara","code":"","name":"Bikomi Selatan","kind":"District"},"geometry":{"type":"Point","coordinates":[124.56679192000007,-9.52100276799996]},"id":null},{"type":"Feature","properties":{"parent_code":"5303","parent_name":"Timor Tengah Utara","code":"","name":"Miomaffo Tengah","kind":"District"},"geometry":{"type":"Point","coordinates":[124.43084815500009,-9.530202784999979]},"id":null},{"type":"Feature","properties":{"parent_code":"5303","parent_name":"Timor Tengah Utara","code":"","name":"Musi","kind":"District"},"geometry":{"type":"Point","coordinates":[124.36500874300009,-9.491668731499942]},"id":null},{"type":"Feature","properties":{"parent_code":"5303","parent_name":"Timor Tengah Utara","code":"","name":"Insana Barat","kind":"District"},"geometry":{"type":"Point","coordinates":[124.58443672900006,-9.47773304149996]},"id":null},{"type":"Feature","properties":{"parent_code":"5303","parent_name":"Timor Tengah Utara","code":"","name":"Insana Tengah","kind":"District"},"geometry":{"type":"Point","coordinates":[124.58920964750001,-9.328713819499967]},"id":null},{"type":"Feature","properties":{"parent_code":"5303","parent_name":"Timor Tengah Utara","code":"","name":"Biboki Feotleu","kind":"District"},"geometry":{"type":"Point","coordinates":[124.78280908600004,-9.226844613999958]},"id":null},{"type":"Feature","properties":{"parent_code":"5303","parent_name":"Timor Tengah Utara","code":"","name":"Biboki Tan Pah","kind":"District"},"geometry":{"type":"Point","coordinates":[124.76984339450001,-9.35927893799996]},"id":null},{"type":"Feature","properties":{"parent_code":"5303","parent_name":"Timor Tengah Utara","code":"","name":"Biboki Moenleu","kind":"District"},"geometry":{"type":"Point","coordinates":[124.64781861550006,-9.217393289499967]},"id":null}]}