{"type":"FeatureCollection","features":[{"type":"Feature","properties":{"parent_code":"5308","parent_name":"Ende","code":"","name":"Wolojita","kind":"District"},"geometry":{"type":"Point","coordinates":[121.83875209500007,-8.81259262499995]},"id":null},{"type":"Feature","properties":{"parent_code":"5308","parent_name":"Ende","code":"","name":"Ende","kind":"District"},"geometry":{"type":"Point","coordinates":[121.61994933550005,-8.73176353599996]},"id":null},{"type":"Feature","properties":{"parent_code":"5308","parent_name":"Ende","code":"","name":"Ende Selatan","kind":"District"},"geometry":{"type":"Point","coordinates":[121.64647465700006,-8.875792795499962]},"id":null},{"type":"Feature","properties":{"parent_code":"5308","parent_name":"Ende","code":"","name":"Nangapanda","kind":"District"},"geometry":{"type":"Point","coordinates":[121.48428800250008,-8.73212532149995]},"id":null},{"type":"Feature","properties":{"parent_code":"5308","parent_name":"Ende","code":"","name":"Pulau Ende","kind":"District"},"geometry":{"type":"Point","coordinates":[121.52152823250009,-8.878380462499933]},"id":null},{"type":"Feature","properties":{"parent_code":"5308","parent_name":"Ende","code":"","name":"Wewaria","kind":"District"},"geometry":{"type":"Point","coordinates":[121.68932547150001,-8.595696113999963]},"id":null},{"type":"Feature","properties":{"parent_code":"5308","parent_name":"Ende","code":"","name":"Wolowaru","kind":"District"},"geometry":{"type":"Point","coordinates":[121.88042428200009,-8.773002997499958]},"id":null},{"type":"Feature","properties":{"parent_code":"5308","parent_name":"Ende","code":"","name":"Ndona","kind":"District"},"geometry":{"type":"Point","coordinates":[121.7522773870001,-8.829857459499948]},"id":null},{"type":"Feature","properties":{"parent_code":"5308","parent_name":"Ende","code":"","name":"Detusoko","kind":"District"},"geometry":{"type":"Point","coordinates":[121.75929830000007,-8.724320275499963]},"id":null},{"type":"Feature","properties":{"parent_code":"5308","parent_name":"Ende","code":"","name":"Maurole","kind":"District"},"geometry":{"type":"Point","coordinates":[121.79308090000006,-8.531243234999948]},"id":null},{"type":"Feature","properties":{"parent_code":"5308","parent_name":"Ende","code":"","name":"Maukaro","kind":"District"},"geometry":{"type":"Point","coordinates":[121.5478517305001,-8.629771070999965]},"id":null},{"type":"Feature","properties":{"parent_code":"5308","parent_name":"Ende","code":"","name":"Kelimutu","kind":"District"},"geometry":{"type":"Point","coordinates":[121.83846542100002,-8.742812660499965]},"id":null},{"type":"Feature","properties":{"parent_code":"5308","parent_name":"Ende","code":"","name":"Detukeli","kind":"District"},"geometry":{"type":"Point","coordinates":[121.82080960650006,-8.609202381499955]},"id":null},{"type":"Feature","properties":{"parent_code":"5308","parent_name":"Ende","code":"","name":"Lio Timur","kind":"District"},"geometry":{"type":"Point","coordinates":[121.95108829500003,-8.762535941999943]},"id":null},{"type":"Feature","properties":{"parent_code":"5308","parent_name":"Ende","code":"","name":"Kota Baru","kind":"District"},"geometry":{"type":"Point","coordinates":[121.95470141700002,-8.539650180499933]},"id":null},{"type":"Feature","properties":{"parent_code":"5308","parent_name":"Ende","code":"","name":"Ende Utara","kind":"District"},"geometry":{"type":"Point","coordinates":[121.62663657250005,-8.821448850499934]},"id":null},{"type":"Feature","properties":{"parent_code":"5308","parent_name":"Ende","code":"","name":"Ende Tengah","kind":"District"},"geometry":{"type":"Point","coordinates":[121.65732655000005,-8.833617216999954]},"id":null},{"type":"Feature","properties":{"parent_code":"5308","parent_name":"Ende","code":"","name":"Ndona Timur","kind":"District"},"geometry":{"type":"Point","coordinates":[121.77413042000006,-8.804083333999955]},"id":null},{"type":"Feature","properties":{"parent_code":"5308","parent_name":"Ende","code":"","name":"Ndori","kind":"District"},"geometry":{"type":"Point","coordinates":[121.93282712700005,-8.80659200499997]},"id":null},{"type":"Feature","properties":{"parent_code":"5308","parent_name":"Ende","code":"","name":"Lepembusu Kelisoke","kind":"District"},"geometry":{"type":"Point","coordinates":[121.88646624550006,-8.654778189999945]},"id":null},{"type":"Feature","properties":{"parent_code":"5308","parent_name":"Ende","code":"","name":"Ende Timur","kind":"District"},"geometry":{"type":"Point","coordinates":[121.67195388850007,-8.806694268499939]},"id":null}]}