{"type":"FeatureCollection","features":[{"type":"Feature","properties":{"parent_code":"5317","parent_name":"Sumba Tengah","code":"","name":"Katiku Tana","kind":"District"},"geometry":{"type":"Point","coordinates":[119.53338304550005,-9.579167566499962]},"id":null},{"type":"Feature","properties":{"parent_code":"5317","parent_name":"Sumba Tengah","code":"","name":"Umbu Ratu Nggay Barat","kind":"District"},"geometry":{"type":"Point","coordinates":[119.6396778625001,-9.592485959999948]},"id":null},{"type":"Feature","properties":{"parent_code":"5317","parent_name":"Sumba Tengah","code":"","name":"Katiku Tana Selatan","kind":"District"},"geometry":{"type":"Point","coordinates":[119.6186662985001,-9.719107722499956]},"id":null},{"type":"Feature","properties":{"parent_code":"5317","parent_name":"Sumba Tengah","code":"","name":"Umbu Ratu Nggay Tengah","kind":"District"},"geometry":{"type":"Point","coordinates":[119.68981619800007,-9.52843899399997]},"id":null},{"type":"Feature","properties":{"parent_code":"5317","parent_name":"Sumba Tengah","code":"","name":"Mamboro","kind":"District"},"geometry":{"type":"Point","coordinates":[119.52897312750008,-9.437040165999946]},"id":null},{"type":"Feature","properties":{"parent_code":"5317","parent_name":"Sumba Tengah","code":"","name":"Umbu Ratu Nggay","kind":"District"},"geometry":{"type":"Point","coordinates":[119.78205424150008,-9.523990914499961]},"id":null}]}