{"type":"FeatureCollection","features":[{"type":"Feature","properties":{"parent_code":"1611","parent_name":"Empat Lawang","code":"","name":"Muara Pinang","kind":"District"},"geometry":{"type":"Point","coordinates":[103.07755485400006,-3.8799038949999556]},"id":null},{"type":"Feature","properties":{"parent_code":"1611","parent_name":"Empat Lawang","code":"","name":"Tebing Tinggi","kind":"District"},"geometry":{"type":"Point","coordinates":[103.03056834100008,-3.6149812299999553]},"id":null},{"type":"Feature","properties":{"parent_code":"1611","parent_name":"Empat Lawang","code":"","name":"Lintang Kanan","kind":"District"},"geometry":{"type":"Point","coordinates":[103.01987048950005,-3.9157771939999293]},"id":null},{"type":"Feature","properties":{"parent_code":"1611","parent_name":"Empat Lawang","code":"","name":"Pendopo","kind":"District"},"geometry":{"type":"Point","coordinates":[102.97953478800008,-3.850328683499953]},"id":null},{"type":"Feature","properties":{"parent_code":"1611","parent_name":"Empat Lawang","code":"","name":"Ulu Musi","kind":"District"},"geometry":{"type":"Point","coordinates":[102.76647216650008,-3.684100217499946]},"id":null},{"type":"Feature","properties":{"parent_code":"1611","parent_name":"Empat Lawang","code":"","name":"Sikap Dalam","kind":"District"},"geometry":{"type":"Point","coordinates":[102.86163367050005,-3.8605987899999548]},"id":null},{"type":"Feature","properties":{"parent_code":"1611","parent_name":"Empat Lawang","code":"","name":"Saling","kind":"District"},"geometry":{"type":"Point","coordinates":[103.01358238000006,-3.506573071999952]},"id":null},{"type":"Feature","properties":{"parent_code":"1611","parent_name":"Empat Lawang","code":"","name":"Talang Padang","kind":"District"},"geometry":{"type":"Point","coordinates":[102.92572888300006,-3.692088381499957]},"id":null},{"type":"Feature","properties":{"parent_code":"1611","parent_name":"Empat Lawang","code":"","name":"Pasemah Air Keruh","kind":"District"},"geometry":{"type":"Point","coordinates":[102.74405593650008,-3.8913760594999474]},"id":null},{"type":"Feature","properties":{"parent_code":"1611","parent_name":"Empat Lawang","code":"","name":"Pendopo Barat","kind":"District"},"geometry":{"type":"Point","coordinates":[102.92659994850004,-3.7571066989999626]},"id":null}]}