{"type":"FeatureCollection","features":[{"type":"Feature","properties":{"parent_code":"1613","parent_name":"Musi Rawas Utara","code":"","name":"Karang Jaya","kind":"District"},"geometry":{"type":"Point","coordinates":[102.64158967150004,-2.919297661499968]},"id":null},{"type":"Feature","properties":{"parent_code":"1613","parent_name":"Musi Rawas Utara","code":"","name":"Ulu Rawas","kind":"District"},"geometry":{"type":"Point","coordinates":[102.34689491850006,-2.847204478999942]},"id":null},{"type":"Feature","properties":{"parent_code":"1613","parent_name":"Musi Rawas Utara","code":"","name":"Rawas Ilir","kind":"District"},"geometry":{"type":"Point","coordinates":[103.12918961150004,-2.6027164829999374]},"id":null},{"type":"Feature","properties":{"parent_code":"1613","parent_name":"Musi Rawas Utara","code":"","name":"Karang Dapo","kind":"District"},"geometry":{"type":"Point","coordinates":[102.99732827400007,-2.723578032499944]},"id":null},{"type":"Feature","properties":{"parent_code":"1613","parent_name":"Musi Rawas Utara","code":"","name":"Rawas Ulu","kind":"District"},"geometry":{"type":"Point","coordinates":[102.73917760850006,-2.6139494974999593]},"id":null},{"type":"Feature","properties":{"parent_code":"1613","parent_name":"Musi Rawas Utara","code":"","name":"Nibung","kind":"District"},"geometry":{"type":"Point","coordinates":[102.96563659800006,-2.458224940499946]},"id":null},{"type":"Feature","properties":{"parent_code":"1613","parent_name":"Musi Rawas Utara","code":"","name":"Rupit","kind":"District"},"geometry":{"type":"Point","coordinates":[102.80886790850008,-2.73853894949994]},"id":null}]}