{"type":"FeatureCollection","features":[{"type":"Feature","properties":{"parent_code":"1213","parent_name":"Mandailing Natal","code":"","name":"Panyabungan Utara","kind":"District"},"geometry":{"type":"Point","coordinates":[99.55917346500007,0.9311463045000326]},"id":null},{"type":"Feature","properties":{"parent_code":"1213","parent_name":"Mandailing Natal","code":"","name":"Panyabungan Timur","kind":"District"},"geometry":{"type":"Point","coordinates":[99.72095166150004,0.7955868625000735]},"id":null},{"type":"Feature","properties":{"parent_code":"1213","parent_name":"Mandailing Natal","code":"","name":"Panyabungan","kind":"District"},"geometry":{"type":"Point","coordinates":[99.62472461950006,0.84815256400006]},"id":null},{"type":"Feature","properties":{"parent_code":"1213","parent_name":"Mandailing Natal","code":"","name":"Siabu","kind":"District"},"geometry":{"type":"Point","coordinates":[99.44772199700006,1.039493658000055]},"id":null},{"type":"Feature","properties":{"parent_code":"1213","parent_name":"Mandailing Natal","code":"","name":"Bukit Malintang","kind":"District"},"geometry":{"type":"Point","coordinates":[99.54328995000006,0.9783919685000341]},"id":null},{"type":"Feature","properties":{"parent_code":"1213","parent_name":"Mandailing Natal","code":"","name":"Panyabungan Selatan","kind":"District"},"geometry":{"type":"Point","coordinates":[99.53242994400006,0.7485233280000616]},"id":null},{"type":"Feature","properties":{"parent_code":"1213","parent_name":"Mandailing Natal","code":"","name":"Panyabungan Barat","kind":"District"},"geometry":{"type":"Point","coordinates":[99.48930730250007,0.8168006760000426]},"id":null},{"type":"Feature","properties":{"parent_code":"1213","parent_name":"Mandailing Natal","code":"","name":"Kotanopan","kind":"District"},"geometry":{"type":"Point","coordinates":[99.72282281850008,0.5819338030000155]},"id":null},{"type":"Feature","properties":{"parent_code":"1213","parent_name":"Mandailing Natal","code":"","name":"Lembah Sorik Marapi","kind":"District"},"geometry":{"type":"Point","coordinates":[99.60230905700004,0.7427909610000545]},"id":null},{"type":"Feature","properties":{"parent_code":"1213","parent_name":"Mandailing Natal","code":"","name":"Batang Natal","kind":"District"},"geometry":{"type":"Point","coordinates":[99.42676180400005,0.6768984570000325]},"id":null},{"type":"Feature","properties":{"parent_code":"1213","parent_name":"Mandailing Natal","code":"","name":"Lingga Bayu","kind":"District"},"geometry":{"type":"Point","coordinates":[99.24802297250005,0.6181606600000296]},"id":null},{"type":"Feature","properties":{"parent_code":"1213","parent_name":"Mandailing Natal","code":"","name":"Ulu Pungkut","kind":"District"},"geometry":{"type":"Point","coordinates":[99.79025602400006,0.543258468500021]},"id":null},{"type":"Feature","properties":{"parent_code":"1213","parent_name":"Mandailing Natal","code":"","name":"Muara Sipongi","kind":"District"},"geometry":{"type":"Point","coordinates":[99.88013003450004,0.617842972500015]},"id":null},{"type":"Feature","properties":{"parent_code":"1213","parent_name":"Mandailing Natal","code":"","name":"Muara Batang Gadis","kind":"District"},"geometry":{"type":"Point","coordinates":[99.10823723750008,1.028271726500037]},"id":null},{"type":"Feature","properties":{"parent_code":"1213","parent_name":"Mandailing Natal","code":"","name":"Ranto Baek","kind":"District"},"geometry":{"type":"Point","coordinates":[99.37816094900006,0.5054429210000535]},"id":null},{"type":"Feature","properties":{"parent_code":"1213","parent_name":"Mandailing Natal","code":"","name":"Batahan","kind":"District"},"geometry":{"type":"Point","coordinates":[99.22381703300007,0.354246970500043]},"id":null},{"type":"Feature","properties":{"parent_code":"1213","parent_name":"Mandailing Natal","code":"","name":"Natal","kind":"District"},"geometry":{"type":"Point","coordinates":[99.11297917250005,0.650109856500052]},"id":null},{"type":"Feature","properties":{"parent_code":"1213","parent_name":"Mandailing Natal","code":"","name":"Tambangan","kind":"District"},"geometry":{"type":"Point","coordinates":[99.66400091550005,0.6890237305000255]},"id":null},{"type":"Feature","properties":{"parent_code":"1213","parent_name":"Mandailing Natal","code":"","name":"Huta Bargot","kind":"District"},"geometry":{"type":"Point","coordinates":[99.56972180450006,0.776041286000037]},"id":null},{"type":"Feature","properties":{"parent_code":"1213","parent_name":"Mandailing Natal","code":"","name":"Sinunukan","kind":"District"},"geometry":{"type":"Point","coordinates":[99.24255032950006,0.4763912470000375]},"id":null},{"type":"Feature","properties":{"parent_code":"1213","parent_name":"Mandailing Natal","code":"","name":"Naga Juang","kind":"District"},"geometry":{"type":"Point","coordinates":[99.43916377700006,0.9289124240000319]},"id":null},{"type":"Feature","properties":{"parent_code":"1213","parent_name":"Mandailing Natal","code":"","name":"Puncak Sorik Marapi","kind":"District"},"geometry":{"type":"Point","coordinates":[99.57833416000005,0.677822651500037]},"id":null},{"type":"Feature","properties":{"parent_code":"1213","parent_name":"Mandailing Natal","code":"","name":"Pakantan","kind":"District"},"geometry":{"type":"Point","coordinates":[99.89540169250003,0.5262651860000129]},"id":null}]}