{"type":"FeatureCollection","features":[{"type":"Feature","properties":{"parent_code":"1219","parent_name":"Batu Bara","code":"","name":"Laut Tador","kind":"District"},"geometry":{"type":"Point","coordinates":[99.27341728900007,3.295065668000028]},"id":null},{"type":"Feature","properties":{"parent_code":"1219","parent_name":"Batu Bara","code":"","name":"Lima Puluh","kind":"District"},"geometry":{"type":"Point","coordinates":[99.47741892600007,3.2708524595000483]},"id":null},{"type":"Feature","properties":{"parent_code":"1219","parent_name":"Batu Bara","code":"","name":"Tanjung Tiram","kind":"District"},"geometry":{"type":"Point","coordinates":[99.66425604000005,3.3138545935000256]},"id":null},{"type":"Feature","properties":{"parent_code":"1219","parent_name":"Batu Bara","code":"","name":"Sei Balai","kind":"District"},"geometry":{"type":"Point","coordinates":[99.56471636950008,3.091139759500038]},"id":null},{"type":"Feature","properties":{"parent_code":"1219","parent_name":"Batu Bara","code":"","name":"Medang Deras","kind":"District"},"geometry":{"type":"Point","coordinates":[99.36270091050008,3.3757272125000384]},"id":null},{"type":"Feature","properties":{"parent_code":"1219","parent_name":"Batu Bara","code":"","name":"Lima Puluh","kind":"District"},"geometry":{"type":"Point","coordinates":[99.43844396850005,3.2023513140000546]},"id":null},{"type":"Feature","properties":{"parent_code":"1219","parent_name":"Batu Bara","code":"","name":"Talawi","kind":"District"},"geometry":{"type":"Point","coordinates":[99.54446167150007,3.205321449000053]},"id":null},{"type":"Feature","properties":{"parent_code":"1219","parent_name":"Batu Bara","code":"","name":"Sei Suka","kind":"District"},"geometry":{"type":"Point","coordinates":[99.39685603050006,3.3345016600000577]},"id":null},{"type":"Feature","properties":{"parent_code":"1219","parent_name":"Batu Bara","code":"","name":"Air Putih","kind":"District"},"geometry":{"type":"Point","coordinates":[99.40943187650004,3.27937300800005]},"id":null},{"type":"Feature","properties":{"parent_code":"1219","parent_name":"Batu Bara","code":"","name":"Datuk Tanah Datar","kind":"District"},"geometry":{"type":"Point","coordinates":[99.52485711800006,3.142565743000034]},"id":null},{"type":"Feature","properties":{"parent_code":"1219","parent_name":"Batu Bara","code":"","name":"Nibung Hangus","kind":"District"},"geometry":{"type":"Point","coordinates":[99.65650251750006,3.1677364950000424]},"id":null},{"type":"Feature","properties":{"parent_code":"1219","parent_name":"Batu Bara","code":"","name":"Datuk Lima Puluh","kind":"District"},"geometry":{"type":"Point","coordinates":[99.48681292650005,3.213384992500039]},"id":null}]}