{"type":"FeatureCollection","features":[{"type":"Feature","properties":{"parent_code":"1225","parent_name":"Nias Barat","code":"","name":"Mandrehe Barat","kind":"District"},"geometry":{"type":"Point","coordinates":[97.43262251000004,1.0133770075000539]},"id":null},{"type":"Feature","properties":{"parent_code":"1225","parent_name":"Nias Barat","code":"","name":"Moro'O","kind":"District"},"geometry":{"type":"Point","coordinates":[97.41918051700006,1.07430350250002]},"id":null},{"type":"Feature","properties":{"parent_code":"1225","parent_name":"Nias Barat","code":"","name":"Lahomi","kind":"District"},"geometry":{"type":"Point","coordinates":[97.50318960150005,0.9751906895000675]},"id":null},{"type":"Feature","properties":{"parent_code":"1225","parent_name":"Nias Barat","code":"","name":"Sirombu","kind":"District"},"geometry":{"type":"Point","coordinates":[97.40898876000006,0.902460154000039]},"id":null},{"type":"Feature","properties":{"parent_code":"1225","parent_name":"Nias Barat","code":"","name":"Lolofitu Moi","kind":"District"},"geometry":{"type":"Point","coordinates":[97.58886651750007,1.068369160500026]},"id":null},{"type":"Feature","properties":{"parent_code":"1225","parent_name":"Nias Barat","code":"","name":"Ulu Moro'O","kind":"District"},"geometry":{"type":"Point","coordinates":[97.55196823550006,1.0157722880000506]},"id":null},{"type":"Feature","properties":{"parent_code":"1225","parent_name":"Nias Barat","code":"","name":"Mandrehe","kind":"District"},"geometry":{"type":"Point","coordinates":[97.49298588650007,1.0387324045000526]},"id":null},{"type":"Feature","properties":{"parent_code":"1225","parent_name":"Nias Barat","code":"","name":"Mandrehe Utara","kind":"District"},"geometry":{"type":"Point","coordinates":[97.52673595350007,1.131445]},"id":null}]}