{"type":"FeatureCollection","features":[{"type":"Feature","properties":{"parent_code":"1272","parent_name":"Kota Pematangsiantar","code":"","name":"Siantar Utara","kind":"District"},"geometry":{"type":"Point","coordinates":[99.06370989550004,2.970087804000059]},"id":null},{"type":"Feature","properties":{"parent_code":"1272","parent_name":"Kota Pematangsiantar","code":"","name":"Siantar Selatan","kind":"District"},"geometry":{"type":"Point","coordinates":[99.05744104850007,2.9494473380000557]},"id":null},{"type":"Feature","properties":{"parent_code":"1272","parent_name":"Kota Pematangsiantar","code":"","name":"Siantar Timur","kind":"District"},"geometry":{"type":"Point","coordinates":[99.08202896050008,2.968600674500067]},"id":null},{"type":"Feature","properties":{"parent_code":"1272","parent_name":"Kota Pematangsiantar","code":"","name":"Siantar Barat","kind":"District"},"geometry":{"type":"Point","coordinates":[99.05847390250008,2.9554953185000556]},"id":null},{"type":"Feature","properties":{"parent_code":"1272","parent_name":"Kota Pematangsiantar","code":"","name":"Siantar Sitalasari","kind":"District"},"geometry":{"type":"Point","coordinates":[99.04069252600004,2.973061122000047]},"id":null},{"type":"Feature","properties":{"parent_code":"1272","parent_name":"Kota Pematangsiantar","code":"","name":"Siantar Marimbun","kind":"District"},"geometry":{"type":"Point","coordinates":[99.04908176550003,2.9191444495000383]},"id":null},{"type":"Feature","properties":{"parent_code":"1272","parent_name":"Kota Pematangsiantar","code":"","name":"Siantar Marihat","kind":"District"},"geometry":{"type":"Point","coordinates":[99.08094377250006,2.946832699500021]},"id":null},{"type":"Feature","properties":{"parent_code":"1272","parent_name":"Kota Pematangsiantar","code":"","name":"Siantar Martoba","kind":"District"},"geometry":{"type":"Point","coordinates":[99.06792642900007,2.9964912075000427]},"id":null}]}