{"type":"FeatureCollection","features":[{"type":"Feature","properties":{"parent_code":"1274","parent_name":"Kota Tanjung Balai","code":"","name":"Tanjung Balai Selatan","kind":"District"},"geometry":{"type":"Point","coordinates":[99.80367589450006,2.9631555170000468]},"id":null},{"type":"Feature","properties":{"parent_code":"1274","parent_name":"Kota Tanjung Balai","code":"","name":"Tanjung Balai Utara","kind":"District"},"geometry":{"type":"Point","coordinates":[99.80370949650006,2.9705124080000473]},"id":null},{"type":"Feature","properties":{"parent_code":"1274","parent_name":"Kota Tanjung Balai","code":"","name":"Datuk Bandar","kind":"District"},"geometry":{"type":"Point","coordinates":[99.77796971550006,2.9468959960000514]},"id":null},{"type":"Feature","properties":{"parent_code":"1274","parent_name":"Kota Tanjung Balai","code":"","name":"Datuk Bandar Timur","kind":"District"},"geometry":{"type":"Point","coordinates":[99.81640273150006,2.9459458700000596]},"id":null},{"type":"Feature","properties":{"parent_code":"1274","parent_name":"Kota Tanjung Balai","code":"","name":"Sei Tualang Raso","kind":"District"},"geometry":{"type":"Point","coordinates":[99.78798927700007,2.9891009505000454]},"id":null},{"type":"Feature","properties":{"parent_code":"1274","parent_name":"Kota Tanjung Balai","code":"","name":"Teluk Nibung","kind":"District"},"geometry":{"type":"Point","coordinates":[99.79990600100007,2.999426511000024]},"id":null}]}