{"type":"FeatureCollection","features":[{"type":"Feature","properties":{"parent_code":"9407","parent_name":"Puncak Jaya","code":"940701","name":"Mulia","kind":"District"},"geometry":{"type":"Point","coordinates":[137.96541692950007,-3.707419740499944]},"id":940701},{"type":"Feature","properties":{"parent_code":"9407","parent_name":"Puncak Jaya","code":"940703","name":"Ilu","kind":"District"},"geometry":{"type":"Point","coordinates":[138.17809706600008,-3.6668177014999515]},"id":940703},{"type":"Feature","properties":{"parent_code":"9407","parent_name":"Puncak Jaya","code":"940708","name":"Yamo","kind":"District"},"geometry":{"type":"Point","coordinates":[138.0144556025001,-3.6316144959999406]},"id":940708},{"type":"Feature","properties":{"parent_code":"9407","parent_name":"Puncak Jaya","code":"940706","name":"Fawi","kind":"District"},"geometry":{"type":"Point","coordinates":[137.65953507200004,-3.2254823604999676]},"id":940706},{"type":"Feature","properties":{"parent_code":"9407","parent_name":"Puncak Jaya","code":"940707","name":"Mewoluk","kind":"District"},"geometry":{"type":"Point","coordinates":[137.67930782550008,-3.4329235109999554]},"id":940707},{"type":"Feature","properties":{"parent_code":"9407","parent_name":"Puncak Jaya","code":"940711","name":"Torere","kind":"District"},"geometry":{"type":"Point","coordinates":[137.94912557850006,-3.4916625794999443]},"id":940711},{"type":"Feature","properties":{"parent_code":"9407","parent_name":"Puncak Jaya","code":"940712","name":"Tingginambut","kind":"District"},"geometry":{"type":"Point","coordinates":[138.07469366850006,-3.7526896859999397]},"id":940712},{"type":"Feature","properties":{"parent_code":"9407","parent_name":"Puncak Jaya","code":"940710","name":"Nume","kind":"District"},"geometry":{"type":"Point","coordinates":[138.2903395355001,-3.770781110499939]},"id":940710},{"type":"Feature","properties":{"parent_code":"9407","parent_name":"Puncak Jaya","code":"940719","name":"Irimuli","kind":"District"},"geometry":{"type":"Point","coordinates":[137.99216523450008,-3.7270779539999523]},"id":940719},{"type":"Feature","properties":{"parent_code":"9407","parent_name":"Puncak Jaya","code":"940717","name":"Pagaleme","kind":"District"},"geometry":{"type":"Point","coordinates":[137.9832031960001,-3.710644351999946]},"id":940717},{"type":"Feature","properties":{"parent_code":"9407","parent_name":"Puncak Jaya","code":"940718","name":"Gurage","kind":"District"},"geometry":{"type":"Point","coordinates":[138.03644912800007,-3.7165566974999535]},"id":940718},{"type":"Feature","properties":{"parent_code":"9407","parent_name":"Puncak Jaya","code":"940722","name":"Yambi","kind":"District"},"geometry":{"type":"Point","coordinates":[137.90220147500008,-3.758743351999954]},"id":940722},{"type":"Feature","properties":{"parent_code":"9407","parent_name":"Puncak Jaya","code":"940723","name":"Lumo","kind":"District"},"geometry":{"type":"Point","coordinates":[137.70747649300006,-3.615963462999957]},"id":940723},{"type":"Feature","properties":{"parent_code":"9407","parent_name":"Puncak Jaya","code":"940720","name":"Muara","kind":"District"},"geometry":{"type":"Point","coordinates":[137.93785926000004,-3.6881172819999506]},"id":940720},{"type":"Feature","properties":{"parent_code":"9407","parent_name":"Puncak Jaya","code":"940721","name":"Ilamburawi","kind":"District"},"geometry":{"type":"Point","coordinates":[137.96526727350005,-3.7856011469999657]},"id":940721},{"type":"Feature","properties":{"parent_code":"9407","parent_name":"Puncak Jaya","code":"940726","name":"Kalome","kind":"District"},"geometry":{"type":"Point","coordinates":[137.99652514000007,-3.5265181739999605]},"id":940726},{"type":"Feature","properties":{"parent_code":"9407","parent_name":"Puncak Jaya","code":"940727","name":"Wanwi","kind":"District"},"geometry":{"type":"Point","coordinates":[138.03724621750007,-3.7910915344999694]},"id":940727},{"type":"Feature","properties":{"parent_code":"9407","parent_name":"Puncak Jaya","code":"940724","name":"Molanikime","kind":"District"},"geometry":{"type":"Point","coordinates":[137.8418656670001,-3.5853677859999493]},"id":940724},{"type":"Feature","properties":{"parent_code":"9407","parent_name":"Puncak Jaya","code":"940725","name":"Dokome","kind":"District"},"geometry":{"type":"Point","coordinates":[137.96291381300006,-3.627791893999955]},"id":940725},{"type":"Feature","properties":{"parent_code":"9407","parent_name":"Puncak Jaya","code":"940728","name":"Yamoneri","kind":"District"},"geometry":{"type":"Point","coordinates":[138.2027475440001,-3.807333735499952]},"id":940728},{"type":"Feature","properties":{"parent_code":"9407","parent_name":"Puncak Jaya","code":"940729","name":"Waegi","kind":"District"},"geometry":{"type":"Point","coordinates":[138.11473217550002,-3.8015289589999384]},"id":940729},{"type":"Feature","properties":{"parent_code":"9407","parent_name":"Puncak Jaya","code":"940733","name":"Dagai","kind":"District"},"geometry":{"type":"Point","coordinates":[137.97296410050006,-3.205785033999973]},"id":940733},{"type":"Feature","properties":{"parent_code":"9407","parent_name":"Puncak Jaya","code":"940734","name":"Kiyage","kind":"District"},"geometry":{"type":"Point","coordinates":[137.90728527700003,-3.641145257999966]},"id":940734},{"type":"Feature","properties":{"parent_code":"9407","parent_name":"Puncak Jaya","code":"940731","name":"Gubume","kind":"District"},"geometry":{"type":"Point","coordinates":[138.2471313410001,-3.645716885499951]},"id":940731},{"type":"Feature","properties":{"parent_code":"9407","parent_name":"Puncak Jaya","code":"940732","name":"Taganombak","kind":"District"},"geometry":{"type":"Point","coordinates":[138.09520001400006,-3.6400740654999595]},"id":940732},{"type":"Feature","properties":{"parent_code":"9407","parent_name":"Puncak Jaya","code":"940730","name":"Nioga","kind":"District"},"geometry":{"type":"Point","coordinates":[138.25888445600003,-3.6960287449999494]},"id":940730}]}