{"type":"FeatureCollection","features":[{"type":"Feature","properties":{"code":"72","name":"Sulawesi Tengah","kind":"Province"},"geometry":{"type":"Point","coordinates":[121.80396749900007,-1.1331408699999486]},"id":72},{"type":"Feature","properties":{"code":"76","name":"Sulawesi Barat","kind":"Province"},"geometry":{"type":"Point","coordinates":[118.46667762700002,-2.2098381449999636]},"id":76},{"type":"Feature","properties":{"code":"73","name":"Sulawesi Selatan","kind":"Province"},"geometry":{"type":"Point","coordinates":[119.63042195100007,-4.853113842499965]},"id":73},{"type":"Feature","properties":{"code":"94","name":"Papua Tengah","kind":"Province"},"geometry":{"type":"Point","coordinates":[136.46976378900007,-3.746106435499968]},"id":94},{"type":"Feature","properties":{"code":"92","name":"Papua Barat","kind":"Province"},"geometry":{"type":"Point","coordinates":[133.39011629800007,-2.522268988499974]},"id":92},{"type":"Feature","properties":{"code":"75","name":"Gorontalo","kind":"Province"},"geometry":{"type":"Point","coordinates":[122.35676188800011,0.680964563500055]},"id":75},{"type":"Feature","properties":{"code":"14","name":"Riau","kind":"Province"},"geometry":{"type":"Point","coordinates":[101.93164856450008,0.8967759850000618]},"id":14},{"type":"Feature","properties":{"code":"93","name":"Papua Selatan","kind":"Province"},"geometry":{"type":"Point","coordinates":[139.33030490300007,-6.8448037869999325]},"id":93},{"type":"Feature","properties":{"code":"34","name":"Daerah Istimewa Yogyakarta","kind":"Province"},"geometry":{"type":"Point","coordinates":[110.42117851300006,-7.873393049499953]},"id":34},{"type":"Feature","properties":{"code":"13","name":"Sumatera Barat","kind":"Province"},"geometry":{"type":"Point","coordinates":[100.24469243950006,-1.3331488884999487]},"id":13},{"type":"Feature","properties":{"code":"31","name":"DKI Jakarta","kind":"Province"},"geometry":{"type":"Point","coordinates":[106.68190789900007,-5.787522216999946]},"id":31},{"type":"Feature","properties":{"code":"81","name":"Maluku","kind":"Province"},"geometry":{"type":"Point","coordinates":[130.31548855900007,-5.535431369499946]},"id":81},{"type":"Feature","properties":{"code":"17","name":"Bengkulu","kind":"Province"},"geometry":{"type":"Point","coordinates":[102.40643986800006,-3.9015465244999348]},"id":17},{"type":"Feature","properties":{"code":"18","name":"Lampung","kind":"Province"},"geometry":{"type":"Point","coordinates":[104.93562319700007,-4.945844330499966]},"id":18},{"type":"Feature","properties":{"code":"91","name":"Papua","kind":"Province"},"geometry":{"type":"Point","coordinates":[137.6520321745001,-1.5891645459999495]},"id":91},{"type":"Feature","properties":{"code":"21","name":"Kepulauan Riau","kind":"Province"},"geometry":{"type":"Point","coordinates":[106.19912502100007,1.7602238810000586]},"id":21},{"type":"Feature","properties":{"code":"52","name":"Nusa Tenggara Barat","kind":"Province"},"geometry":{"type":"Point","coordinates":[117.58357151100006,-8.594854988999941]},"id":52},{"type":"Feature","properties":{"code":"15","name":"Jambi","kind":"Province"},"geometry":{"type":"Point","coordinates":[102.81564251800006,-1.7502444579999406]},"id":15},{"type":"Feature","properties":{"code":"51","name":"Bali","kind":"Province"},"geometry":{"type":"Point","coordinates":[115.07203207550003,-8.455440296499944]},"id":51},{"type":"Feature","properties":{"code":"35","name":"Jawa Timur","kind":"Province"},"geometry":{"type":"Point","coordinates":[113.58273761850006,-6.911593942999957]},"id":35},{"type":"Feature","properties":{"code":"96","name":"Papua Barat Daya","kind":"Province"},"geometry":{"type":"Point","coordinates":[131.39693219300005,-0.6012846674999537]},"id":96},{"type":"Feature","properties":{"code":"12","name":"Sumatera Utara","kind":"Province"},"geometry":{"type":"Point","coordinates":[98.74596343100006,1.8318746645000488]},"id":12},{"type":"Feature","properties":{"code":"74","name":"Sulawesi Tenggara","kind":"Province"},"geometry":{"type":"Point","coordinates":[122.74067823400009,-4.493183575499955]},"id":74},{"type":"Feature","properties":{"code":"53","name":"Nusa Tenggara Timur","kind":"Province"},"geometry":{"type":"Point","coordinates":[122.0601679080001,-9.393136654499955]},"id":53},{"type":"Feature","properties":{"code":"63","name":"Kalimantan Selatan","kind":"Province"},"geometry":{"type":"Point","coordinates":[115.90239644000008,-3.127661806999953]},"id":63},{"type":"Feature","properties":{"code":"11","name":"Aceh","kind":"Province"},"geometry":{"type":"Point","coordinates":[96.62967752850005,4.0269921025000315]},"id":11},{"type":"Feature","properties":{"code":"62","name":"Kalimantan Tengah","kind":"Province"},"geometry":{"type":"Point","coordinates":[113.29065346450005,-1.3762990979999472]},"id":62},{"type":"Feature","properties":{"code":"95","name":"Papua Pegunungan","kind":"Province"},"geometry":{"type":"Point","coordinates":[139.35640847100007,-4.132076097499947]},"id":95},{"type":"Feature","properties":{"code":"19","name":"Kepulauan Bangka Belitung","kind":"Province"},"geometry":{"type":"Point","coordinates":[106.99016736700005,-2.6475041764999503]},"id":19},{"type":"Feature","properties":{"code":"16","name":"Sumatera Selatan","kind":"Province"},"geometry":{"type":"Point","coordinates":[104.14228815850007,-3.275545322499937]},"id":16},{"type":"Feature","properties":{"code":"36","name":"Banten","kind":"Province"},"geometry":{"type":"Point","coordinates":[105.93986847350007,-6.411934781499951]},"id":36},{"type":"Feature","properties":{"code":"71","name":"Sulawesi Utara","kind":"Province"},"geometry":{"type":"Point","coordinates":[125.13416262050009,2.9292265760000475]},"id":71},{"type":"Feature","properties":{"code":"65","name":"Kalimantan Utara","kind":"Province"},"geometry":{"type":"Point","coordinates":[116.27493858450009,2.7612515245000395]},"id":65},{"type":"Feature","properties":{"code":"64","name":"Kalimantan Timur","kind":"Province"},"geometry":{"type":"Point","coordinates":[116.43571073800007,0.07971514950006053]},"id":64},{"type":"Feature","properties":{"code":"33","name":"Jawa Tengah","kind":"Province"},"geometry":{"type":"Point","coordinates":[110.12362123950007,-6.968588266999944]},"id":33},{"type":"Feature","properties":{"code":"82","name":"Maluku Utara","kind":"Province"},"geometry":{"type":"Point","coordinates":[127.1033447640001,0.08402083250004466]},"id":82},{"type":"Feature","properties":{"code":"61","name":"Kalimantan Barat","kind":"Province"},"geometry":{"type":"Point","coordinates":[111.40198342200006,-0.49322953999993047]},"id":61},{"type":"Feature","properties":{"code":"32","name":"Jawa Barat","kind":"Province"},"geometry":{"type":"Point","coordinates":[107.60851410600009,-6.813763810999944]},"id":32}]}