{"type":"FeatureCollection","features":[{"type":"Feature","geometry":{"type":"Point","coordinates":[121.4456,-1.43]},"properties":{"code":"72","name":"Sulawesi Tengah","kind":"Province"},"id":72},{"type":"Feature","geometry":{"type":"Point","coordinates":[119.2321,-2.8456]},"properties":{"code":"76","name":"Sulawesi Barat","kind":"Province"},"id":76},{"type":"Feature","geometry":{"type":"Point","coordinates":[119.6525,-4.8406]},"properties":{"code":"73","name":"Sulawesi Selatan","kind":"Province"},"id":73},{"type":"Feature","geometry":{"type":"Point","coordinates":[135.55511,-3.54016]},"properties":{"code":"91","name":"Papua Tengah","kind":"Province"},"id":91},{"type":"Feature","geometry":{"type":"Point","coordinates":[134.083333,-0.866667]},"properties":{"code":"92","name":"Papua Barat","kind":"Province"},"id":92},{"type":"Feature","geometry":{"type":"Point","coordinates":[122.4467,0.6999]},"properties":{"code":"75","name":"Gorontalo","kind":"Province"},"id":75},{"type":"Feature","geometry":{"type":"Point","coordinates":[101.7068,0.2933]},"properties":{"code":"14","name":"Riau","kind":"Province"},"id":14},{"type":"Feature","geometry":{"type":"Point","coordinates":[140.410431,-8.495551]},"properties":{"code":"91","name":"Papua Selatan","kind":"Province"},"id":91},{"type":"Feature","geometry":{"type":"Point","coordinates":[110.3695,-7.7956]},"properties":{"code":"34","name":"Daerah Istimewa Yogyakarta","kind":"Province"},"id":34},{"type":"Feature","geometry":{"type":"Point","coordinates":[100.3741,-0.96]},"properties":{"code":"13","name":"Sumatera Barat","kind":"Province"},"id":13},{"type":"Feature","geometry":{"type":"Point","coordinates":[106.8456,-6.2088]},"properties":{"code":"31","name":"DKI Jakarta","kind":"Province"},"id":31},{"type":"Feature","geometry":{"type":"Point","coordinates":[128.2155,-2.5053]},"properties":{"code":"81","name":"Maluku","kind":"Province"},"id":81},{"type":"Feature","geometry":{"type":"Point","coordinates":[102.3464,-3.5778]},"properties":{"code":"17","name":"Bengkulu","kind":"Province"},"id":17},{"type":"Feature","geometry":{"type":"Point","coordinates":[105.4068,-4.5586]},"properties":{"code":"18","name":"Lampung","kind":"Province"},"id":18},{"type":"Feature","geometry":{"type":"Point","coordinates":[140.72,-2.53]},"properties":{"code":"91","name":"Papua","kind":"Province"},"id":91},{"type":"Feature","geometry":{"type":"Point","coordinates":[104.6841,0.9385]},"properties":{"code":"21","name":"Kepulauan Riau","kind":"Province"},"id":21},{"type":"Feature","geometry":{"type":"Point","coordinates":[117.3613,-8.652]},"properties":{"code":"52","name":"Nusa Tenggara Barat","kind":"Province"},"id":52},{"type":"Feature","geometry":{"type":"Point","coordinates":[103.6131,-1.6107]},"properties":{"code":"15","name":"Jambi","kind":"Province"},"id":15},{"type":"Feature","geometry":{"type":"Point","coordinates":[115.092,-8.3405]},"properties":{"code":"51","name":"Bali","kind":"Province"},"id":51},{"type":"Feature","geometry":{"type":"Point","coordinates":[112.2384,-7.5361]},"properties":{"code":"35","name":"Jawa Timur","kind":"Province"},"id":35},{"type":"Feature","geometry":{"type":"Point","coordinates":[131.85,-0.9]},"properties":{"code":"92","name":"Papua Barat Daya","kind":"Province"},"id":92},{"type":"Feature","geometry":{"type":"Point","coordinates":[99.5451,2.115]},"properties":{"code":"12","name":"Sumatera Utara","kind":"Province"},"id":12},{"type":"Feature","geometry":{"type":"Point","coordinates":[122.1746,-4.1561]},"properties":{"code":"74","name":"Sulawesi Tenggara","kind":"Province"},"id":74},{"type":"Feature","geometry":{"type":"Point","coordinates":[121.0794,-8.6574]},"properties":{"code":"53","name":"Nusa Tenggara Timur","kind":"Province"},"id":53},{"type":"Feature","geometry":{"type":"Point","coordinates":[115.2388,-3.2385]},"properties":{"code":"63","name":"Kalimantan Selatan","kind":"Province"},"id":63},{"type":"Feature","geometry":{"type":"Point","coordinates":[95.3191,5.5469]},"properties":{"code":"11","name":"Aceh","kind":"Province"},"id":11},{"type":"Feature","geometry":{"type":"Point","coordinates":[113.3824,-1.7379]},"properties":{"code":"62","name":"Kalimantan Tengah","kind":"Province"},"id":62},{"type":"Feature","geometry":{"type":"Point","coordinates":[138.763962,-4.220421]},"properties":{"code":"91","name":"Papua Pegunungan","kind":"Province"},"id":91},{"type":"Feature","geometry":{"type":"Point","coordinates":[106.4406,-2.7412]},"properties":{"code":"19","name":"Kepulauan Bangka Belitung","kind":"Province"},"id":19},{"type":"Feature","geometry":{"type":"Point","coordinates":[104.7568,-2.9899]},"properties":{"code":"16","name":"Sumatera Selatan","kind":"Province"},"id":16},{"type":"Feature","geometry":{"type":"Point","coordinates":[106.0649,-6.4053]},"properties":{"code":"36","name":"Banten","kind":"Province"},"id":36},{"type":"Feature","geometry":{"type":"Point","coordinates":[123.975,0.6247]},"properties":{"code":"71","name":"Sulawesi Utara","kind":"Province"},"id":71},{"type":"Feature","geometry":{"type":"Point","coordinates":[116.4194,2.9965]},"properties":{"code":"65","name":"Kalimantan Utara","kind":"Province"},"id":65},{"type":"Feature","geometry":{"type":"Point","coordinates":[116.4194,1.6015]},"properties":{"code":"64","name":"Kalimantan Timur","kind":"Province"},"id":64},{"type":"Feature","geometry":{"type":"Point","coordinates":[110.1403,-7.15]},"properties":{"code":"33","name":"Jawa Tengah","kind":"Province"},"id":33},{"type":"Feature","geometry":{"type":"Point","coordinates":[127.9961,0.6314]},"properties":{"code":"82","name":"Maluku Utara","kind":"Province"},"id":82},{"type":"Feature","geometry":{"type":"Point","coordinates":[109.3309,0.0226]},"properties":{"code":"61","name":"Kalimantan Barat","kind":"Province"},"id":61},{"type":"Feature","geometry":{"type":"Point","coordinates":[107.6049,-6.9204]},"properties":{"code":"32","name":"Jawa Barat","kind":"Province"},"id":32}]}