{"type":"FeatureCollection","features":[{"type":"Feature","properties":{"parent_code":"7204","parent_name":"Toli Toli","code":"","name":"Galang","kind":"District"},"geometry":{"type":"Point","coordinates":[120.93870951400004,1.1340488995000726]},"id":null},{"type":"Feature","properties":{"parent_code":"7204","parent_name":"Toli Toli","code":"","name":"Toli-Toli Utara","kind":"District"},"geometry":{"type":"Point","coordinates":[121.02683022600007,1.241593556000055]},"id":null},{"type":"Feature","properties":{"parent_code":"7204","parent_name":"Toli Toli","code":"","name":"Dampal Utara","kind":"District"},"geometry":{"type":"Point","coordinates":[120.31697602600002,0.9363690965000444]},"id":null},{"type":"Feature","properties":{"parent_code":"7204","parent_name":"Toli Toli","code":"","name":"Dondo","kind":"District"},"geometry":{"type":"Point","coordinates":[120.45741115800001,0.7308159940000395]},"id":null},{"type":"Feature","properties":{"parent_code":"7204","parent_name":"Toli Toli","code":"","name":"Dampal Selatan","kind":"District"},"geometry":{"type":"Point","coordinates":[120.24714592700002,0.7528212985000665]},"id":null},{"type":"Feature","properties":{"parent_code":"7204","parent_name":"Toli Toli","code":"","name":"Lampasio","kind":"District"},"geometry":{"type":"Point","coordinates":[120.86634194750002,0.842968431500026]},"id":null},{"type":"Feature","properties":{"parent_code":"7204","parent_name":"Toli Toli","code":"","name":"Baolan","kind":"District"},"geometry":{"type":"Point","coordinates":[120.89841017200007,1.0139632100000424]},"id":null},{"type":"Feature","properties":{"parent_code":"7204","parent_name":"Toli Toli","code":"","name":"Basidondo","kind":"District"},"geometry":{"type":"Point","coordinates":[120.72307965800007,0.7129674400000565]},"id":null},{"type":"Feature","properties":{"parent_code":"7204","parent_name":"Toli Toli","code":"","name":"Ogodeide","kind":"District"},"geometry":{"type":"Point","coordinates":[120.66819441350003,0.930202727000051]},"id":null},{"type":"Feature","properties":{"parent_code":"7204","parent_name":"Toli Toli","code":"","name":"Dako Pemean","kind":"District"},"geometry":{"type":"Point","coordinates":[120.87747966900002,1.2572084945000483]},"id":null}]}