{"type":"FeatureCollection","features":[{"type":"Feature","properties":{"parent_code":"5104","parent_name":"Gianyar","code":"","name":"Payangan","kind":"District"},"geometry":{"type":"Point","coordinates":[115.2598144690001,-8.395223990999979]},"id":null},{"type":"Feature","properties":{"parent_code":"5104","parent_name":"Gianyar","code":"","name":"Sukawati","kind":"District"},"geometry":{"type":"Point","coordinates":[115.27479457650003,-8.583453006499951]},"id":null},{"type":"Feature","properties":{"parent_code":"5104","parent_name":"Gianyar","code":"","name":"Blahbatuh","kind":"District"},"geometry":{"type":"Point","coordinates":[115.31782871450008,-8.567592381999958]},"id":null},{"type":"Feature","properties":{"parent_code":"5104","parent_name":"Gianyar","code":"","name":"Ubud","kind":"District"},"geometry":{"type":"Point","coordinates":[115.25671004650007,-8.517060994999952]},"id":null},{"type":"Feature","properties":{"parent_code":"5104","parent_name":"Gianyar","code":"","name":"Tegallalang","kind":"District"},"geometry":{"type":"Point","coordinates":[115.29202752900005,-8.41659718249997]},"id":null},{"type":"Feature","properties":{"parent_code":"5104","parent_name":"Gianyar","code":"","name":"Gianyar","kind":"District"},"geometry":{"type":"Point","coordinates":[115.33670498850006,-8.512177144999953]},"id":null},{"type":"Feature","properties":{"parent_code":"5104","parent_name":"Gianyar","code":"","name":"Tampaksiring","kind":"District"},"geometry":{"type":"Point","coordinates":[115.30778709100008,-8.445172966499939]},"id":null}]}