{"type":"FeatureCollection","features":[{"type":"Feature","properties":{"parent_code":"5107","parent_name":"Karangasem","code":"","name":"Rendang","kind":"District"},"geometry":{"type":"Point","coordinates":[115.44189362750006,-8.381924059999932]},"id":null},{"type":"Feature","properties":{"parent_code":"5107","parent_name":"Karangasem","code":"","name":"Karangasem","kind":"District"},"geometry":{"type":"Point","coordinates":[115.63833549850006,-8.461177883499943]},"id":null},{"type":"Feature","properties":{"parent_code":"5107","parent_name":"Karangasem","code":"","name":"Abang","kind":"District"},"geometry":{"type":"Point","coordinates":[115.6149654725001,-8.363491723999942]},"id":null},{"type":"Feature","properties":{"parent_code":"5107","parent_name":"Karangasem","code":"","name":"Sidemen","kind":"District"},"geometry":{"type":"Point","coordinates":[115.43865527600008,-8.484369977999933]},"id":null},{"type":"Feature","properties":{"parent_code":"5107","parent_name":"Karangasem","code":"","name":"Manggis","kind":"District"},"geometry":{"type":"Point","coordinates":[115.5246688955001,-8.497698396999965]},"id":null},{"type":"Feature","properties":{"parent_code":"5107","parent_name":"Karangasem","code":"","name":"Kubu","kind":"District"},"geometry":{"type":"Point","coordinates":[115.52344956400009,-8.256161885999973]},"id":null},{"type":"Feature","properties":{"parent_code":"5107","parent_name":"Karangasem","code":"","name":"Bebandem","kind":"District"},"geometry":{"type":"Point","coordinates":[115.5475586065001,-8.405800133499952]},"id":null},{"type":"Feature","properties":{"parent_code":"5107","parent_name":"Karangasem","code":"","name":"Selat","kind":"District"},"geometry":{"type":"Point","coordinates":[115.47843211700007,-8.409782402999952]},"id":null}]}