{"type":"FeatureCollection","features":[{"type":"Feature","properties":{"parent_code":"7402","parent_name":"Konawe","code":"","name":"Pondidaha","kind":"District"},"geometry":{"type":"Point","coordinates":[122.25690796350005,-3.9544563569999696]},"id":null},{"type":"Feature","properties":{"parent_code":"7402","parent_name":"Konawe","code":"","name":"Sampara","kind":"District"},"geometry":{"type":"Point","coordinates":[122.40254887750007,-3.9815455539999505]},"id":null},{"type":"Feature","properties":{"parent_code":"7402","parent_name":"Konawe","code":"","name":"Unaaha","kind":"District"},"geometry":{"type":"Point","coordinates":[122.0572402090001,-3.852342772999947]},"id":null},{"type":"Feature","properties":{"parent_code":"7402","parent_name":"Konawe","code":"","name":"Wawotobi","kind":"District"},"geometry":{"type":"Point","coordinates":[122.13781006100004,-3.852879611499958]},"id":null},{"type":"Feature","properties":{"parent_code":"7402","parent_name":"Konawe","code":"","name":"Lambuya","kind":"District"},"geometry":{"type":"Point","coordinates":[122.04584404900004,-3.9674629359999756]},"id":null},{"type":"Feature","properties":{"parent_code":"7402","parent_name":"Konawe","code":"","name":"Puriala","kind":"District"},"geometry":{"type":"Point","coordinates":[122.11484696500003,-4.05387696349996]},"id":null},{"type":"Feature","properties":{"parent_code":"7402","parent_name":"Konawe","code":"","name":"Uepai","kind":"District"},"geometry":{"type":"Point","coordinates":[122.02905206650007,-3.886367713999931]},"id":null},{"type":"Feature","properties":{"parent_code":"7402","parent_name":"Konawe","code":"","name":"Tongauna","kind":"District"},"geometry":{"type":"Point","coordinates":[122.02095034650006,-3.745809613999967]},"id":null},{"type":"Feature","properties":{"parent_code":"7402","parent_name":"Konawe","code":"","name":"Latoma","kind":"District"},"geometry":{"type":"Point","coordinates":[121.58506496750005,-3.494143887999968]},"id":null},{"type":"Feature","properties":{"parent_code":"7402","parent_name":"Konawe","code":"","name":"Wonggeduku","kind":"District"},"geometry":{"type":"Point","coordinates":[122.16894594500008,-3.9741050659999644]},"id":null},{"type":"Feature","properties":{"parent_code":"7402","parent_name":"Konawe","code":"","name":"Abuki","kind":"District"},"geometry":{"type":"Point","coordinates":[121.95440160150008,-3.703999289999956]},"id":null},{"type":"Feature","properties":{"parent_code":"7402","parent_name":"Konawe","code":"","name":"Soropia","kind":"District"},"geometry":{"type":"Point","coordinates":[122.69094708900002,-3.928859545499932]},"id":null},{"type":"Feature","properties":{"parent_code":"7402","parent_name":"Konawe","code":"","name":"Amonggedo","kind":"District"},"geometry":{"type":"Point","coordinates":[122.25363105050008,-3.852566863499959]},"id":null},{"type":"Feature","properties":{"parent_code":"7402","parent_name":"Konawe","code":"","name":"Besulutu","kind":"District"},"geometry":{"type":"Point","coordinates":[122.32425544050005,-3.956828704499941]},"id":null},{"type":"Feature","properties":{"parent_code":"7402","parent_name":"Konawe","code":"","name":"Bondoala","kind":"District"},"geometry":{"type":"Point","coordinates":[122.45113705750003,-3.8968125154999598]},"id":null},{"type":"Feature","properties":{"parent_code":"7402","parent_name":"Konawe","code":"","name":"Anggaberi","kind":"District"},"geometry":{"type":"Point","coordinates":[122.09068680550007,-3.778600576999935]},"id":null},{"type":"Feature","properties":{"parent_code":"7402","parent_name":"Konawe","code":"","name":"Meluhu","kind":"District"},"geometry":{"type":"Point","coordinates":[122.18512590400002,-3.803153132499972]},"id":null},{"type":"Feature","properties":{"parent_code":"7402","parent_name":"Konawe","code":"","name":"Routa","kind":"District"},"geometry":{"type":"Point","coordinates":[121.65595281800006,-3.087556473499944]},"id":null},{"type":"Feature","properties":{"parent_code":"7402","parent_name":"Konawe","code":"","name":"Morosi","kind":"District"},"geometry":{"type":"Point","coordinates":[122.36770908400001,-3.8960128684999518]},"id":null},{"type":"Feature","properties":{"parent_code":"7402","parent_name":"Konawe","code":"","name":"Onembute","kind":"District"},"geometry":{"type":"Point","coordinates":[122.01116139000004,-4.055907888999968]},"id":null},{"type":"Feature","properties":{"parent_code":"7402","parent_name":"Konawe","code":"","name":"Padangguni","kind":"District"},"geometry":{"type":"Point","coordinates":[121.90741142400003,-3.6427712874999547]},"id":null},{"type":"Feature","properties":{"parent_code":"7402","parent_name":"Konawe","code":"","name":"Asinua","kind":"District"},"geometry":{"type":"Point","coordinates":[121.80064886450003,-3.635618219999941]},"id":null},{"type":"Feature","properties":{"parent_code":"7402","parent_name":"Konawe","code":"","name":"Konawe","kind":"District"},"geometry":{"type":"Point","coordinates":[122.10049254050006,-3.908146975999955]},"id":null},{"type":"Feature","properties":{"parent_code":"7402","parent_name":"Konawe","code":"","name":"Lalonggasumeeto","kind":"District"},"geometry":{"type":"Point","coordinates":[122.52779382450007,-3.911004984499954]},"id":null},{"type":"Feature","properties":{"parent_code":"7402","parent_name":"Konawe","code":"","name":"Kapoiala","kind":"District"},"geometry":{"type":"Point","coordinates":[122.47971262250002,-3.86461083949996]},"id":null},{"type":"Feature","properties":{"parent_code":"7402","parent_name":"Konawe","code":"","name":"Anggalomoare","kind":"District"},"geometry":{"type":"Point","coordinates":[122.43904460000005,-3.9593604759999437]},"id":null},{"type":"Feature","properties":{"parent_code":"7402","parent_name":"Konawe","code":"","name":"Wonggeduku Barat","kind":"District"},"geometry":{"type":"Point","coordinates":[122.14656626850007,-3.9337159294999537]},"id":null}]}