{"type":"FeatureCollection","features":[{"type":"Feature","properties":{"parent_code":"7413","parent_name":"Muna Barat","code":"","name":"Maginti","kind":"District"},"geometry":{"type":"Point","coordinates":[122.27266221950009,-4.870562831499939]},"id":null},{"type":"Feature","properties":{"parent_code":"7413","parent_name":"Muna Barat","code":"","name":"Tiworo Tengah","kind":"District"},"geometry":{"type":"Point","coordinates":[122.3711774570001,-4.806475485499959]},"id":null},{"type":"Feature","properties":{"parent_code":"7413","parent_name":"Muna Barat","code":"","name":"Wadaga","kind":"District"},"geometry":{"type":"Point","coordinates":[122.5348981845001,-4.927526185499943]},"id":null},{"type":"Feature","properties":{"parent_code":"7413","parent_name":"Muna Barat","code":"","name":"Tiworo Selatan","kind":"District"},"geometry":{"type":"Point","coordinates":[122.38982413800011,-4.8850105204999466]},"id":null},{"type":"Feature","properties":{"parent_code":"7413","parent_name":"Muna Barat","code":"","name":"Tiworo Utara","kind":"District"},"geometry":{"type":"Point","coordinates":[122.35909758350004,-4.673024741499972]},"id":null},{"type":"Feature","properties":{"parent_code":"7413","parent_name":"Muna Barat","code":"","name":"Tiworo Kepulauan","kind":"District"},"geometry":{"type":"Point","coordinates":[122.43866709700006,-4.76428458999996]},"id":null},{"type":"Feature","properties":{"parent_code":"7413","parent_name":"Muna Barat","code":"","name":"Barangka","kind":"District"},"geometry":{"type":"Point","coordinates":[122.55995540100008,-4.826523542499956]},"id":null},{"type":"Feature","properties":{"parent_code":"7413","parent_name":"Muna Barat","code":"","name":"Lawa","kind":"District"},"geometry":{"type":"Point","coordinates":[122.57434986050004,-4.883470926499967]},"id":null},{"type":"Feature","properties":{"parent_code":"7413","parent_name":"Muna Barat","code":"","name":"Sawerigadi","kind":"District"},"geometry":{"type":"Point","coordinates":[122.50327467800008,-4.801718917499954]},"id":null},{"type":"Feature","properties":{"parent_code":"7413","parent_name":"Muna Barat","code":"","name":"Kusambi","kind":"District"},"geometry":{"type":"Point","coordinates":[122.55346759250006,-4.7387715824999646]},"id":null},{"type":"Feature","properties":{"parent_code":"7413","parent_name":"Muna Barat","code":"","name":"Napano Kusambi","kind":"District"},"geometry":{"type":"Point","coordinates":[122.60101958750005,-4.691426678999932]},"id":null}]}