{"type":"FeatureCollection","features":[{"type":"Feature","properties":{"parent_code":"6372","parent_name":"Kota Banjarbaru","code":"","name":"Cempaka","kind":"District"},"geometry":{"type":"Point","coordinates":[114.82079284550008,-3.517382145499937]},"id":null},{"type":"Feature","properties":{"parent_code":"6372","parent_name":"Kota Banjarbaru","code":"","name":"Banjarbaru Utara","kind":"District"},"geometry":{"type":"Point","coordinates":[114.84117961800007,-3.445440015499986]},"id":null},{"type":"Feature","properties":{"parent_code":"6372","parent_name":"Kota Banjarbaru","code":"","name":"Landasan Ulin","kind":"District"},"geometry":{"type":"Point","coordinates":[114.76598790150007,-3.4511216964999676]},"id":null},{"type":"Feature","properties":{"parent_code":"6372","parent_name":"Kota Banjarbaru","code":"","name":"Banjarbaru Selatan","kind":"District"},"geometry":{"type":"Point","coordinates":[114.83261705900009,-3.4596431869999544]},"id":null},{"type":"Feature","properties":{"parent_code":"6372","parent_name":"Kota Banjarbaru","code":"","name":"Liang Anggang","kind":"District"},"geometry":{"type":"Point","coordinates":[114.71107951150009,-3.4476363619999684]},"id":null}]}