{"type":"FeatureCollection","features":[{"type":"Feature","properties":{"parent_code":"2104","parent_name":"Lingga","code":"","name":"Kepulauan Posek","kind":"District"},"geometry":{"type":"Point","coordinates":[104.15036880100007,-0.420742280999971]},"id":null},{"type":"Feature","properties":{"parent_code":"2104","parent_name":"Lingga","code":"","name":"Bakung Serumpun","kind":"District"},"geometry":{"type":"Point","coordinates":[104.36392688950008,0.10855329550005899]},"id":null},{"type":"Feature","properties":{"parent_code":"2104","parent_name":"Lingga","code":"","name":"Katang Bidare","kind":"District"},"geometry":{"type":"Point","coordinates":[104.45270075800005,0.4222538775000545]},"id":null},{"type":"Feature","properties":{"parent_code":"2104","parent_name":"Lingga","code":"","name":"Temiang Pesisir","kind":"District"},"geometry":{"type":"Point","coordinates":[104.40251245650006,0.3047528835000435]},"id":null},{"type":"Feature","properties":{"parent_code":"2104","parent_name":"Lingga","code":"","name":"Singkep Pesisir","kind":"District"},"geometry":{"type":"Point","coordinates":[104.53875037050005,-0.404064728499975]},"id":null},{"type":"Feature","properties":{"parent_code":"2104","parent_name":"Lingga","code":"","name":"Lingga Timur","kind":"District"},"geometry":{"type":"Point","coordinates":[104.86052743250005,-0.255643309999954]},"id":null},{"type":"Feature","properties":{"parent_code":"2104","parent_name":"Lingga","code":"","name":"Singkep Barat","kind":"District"},"geometry":{"type":"Point","coordinates":[104.36262089250005,-0.5098201599999755]},"id":null},{"type":"Feature","properties":{"parent_code":"2104","parent_name":"Lingga","code":"","name":"Lingga Utara","kind":"District"},"geometry":{"type":"Point","coordinates":[104.70608331950007,-0.144730861999932]},"id":null},{"type":"Feature","properties":{"parent_code":"2104","parent_name":"Lingga","code":"","name":"Selayar","kind":"District"},"geometry":{"type":"Point","coordinates":[104.42551601050005,-0.291918021499953]},"id":null},{"type":"Feature","properties":{"parent_code":"2104","parent_name":"Lingga","code":"","name":"Singkep Selatan","kind":"District"},"geometry":{"type":"Point","coordinates":[104.65036160000008,-0.6790445834999446]},"id":null},{"type":"Feature","properties":{"parent_code":"2104","parent_name":"Lingga","code":"","name":"Lingga","kind":"District"},"geometry":{"type":"Point","coordinates":[105.09324657700006,-0.6360423564999566]},"id":null},{"type":"Feature","properties":{"parent_code":"2104","parent_name":"Lingga","code":"","name":"Senayang","kind":"District"},"geometry":{"type":"Point","coordinates":[104.72884309050008,0.0204033850000655]},"id":null},{"type":"Feature","properties":{"parent_code":"2104","parent_name":"Lingga","code":"","name":"Singkep","kind":"District"},"geometry":{"type":"Point","coordinates":[104.53239718000006,-0.5537348944999675]},"id":null}]}