{"type":"FeatureCollection","features":[{"type":"Feature","properties":{"parent_code":"2171","parent_name":"Kota Batam","code":"","name":"Belakang Padang","kind":"District"},"geometry":{"type":"Point","coordinates":[103.82014314150007,1.053081718000044]},"id":null},{"type":"Feature","properties":{"parent_code":"2171","parent_name":"Kota Batam","code":"","name":"Nongsa","kind":"District"},"geometry":{"type":"Point","coordinates":[104.12626983750005,1.0956111265000459]},"id":null},{"type":"Feature","properties":{"parent_code":"2171","parent_name":"Kota Batam","code":"","name":"Bulang","kind":"District"},"geometry":{"type":"Point","coordinates":[103.97485734000006,0.9512036835000686]},"id":null},{"type":"Feature","properties":{"parent_code":"2171","parent_name":"Kota Batam","code":"","name":"Batu Ampar","kind":"District"},"geometry":{"type":"Point","coordinates":[104.01142912300008,1.169638477000035]},"id":null},{"type":"Feature","properties":{"parent_code":"2171","parent_name":"Kota Batam","code":"","name":"Sekupang","kind":"District"},"geometry":{"type":"Point","coordinates":[103.95847891900004,1.1008603740000356]},"id":null},{"type":"Feature","properties":{"parent_code":"2171","parent_name":"Kota Batam","code":"","name":"Galang","kind":"District"},"geometry":{"type":"Point","coordinates":[104.20180989400004,0.7194193630000429]},"id":null},{"type":"Feature","properties":{"parent_code":"2171","parent_name":"Kota Batam","code":"","name":"Bengkong","kind":"District"},"geometry":{"type":"Point","coordinates":[104.03719027100007,1.156569403500043]},"id":null},{"type":"Feature","properties":{"parent_code":"2171","parent_name":"Kota Batam","code":"","name":"Lubuk Baja","kind":"District"},"geometry":{"type":"Point","coordinates":[103.99774873100006,1.130458007500039]},"id":null},{"type":"Feature","properties":{"parent_code":"2171","parent_name":"Kota Batam","code":"","name":"Sei Beduk","kind":"District"},"geometry":{"type":"Point","coordinates":[104.05649683300007,1.042740235000025]},"id":null},{"type":"Feature","properties":{"parent_code":"2171","parent_name":"Kota Batam","code":"","name":"Sagulung","kind":"District"},"geometry":{"type":"Point","coordinates":[103.98795004850007,1.0129442110000468]},"id":null},{"type":"Feature","properties":{"parent_code":"2171","parent_name":"Kota Batam","code":"","name":"Batu Aji","kind":"District"},"geometry":{"type":"Point","coordinates":[103.94280961950005,1.0622100310000349]},"id":null},{"type":"Feature","properties":{"parent_code":"2171","parent_name":"Kota Batam","code":"","name":"Batam Kota","kind":"District"},"geometry":{"type":"Point","coordinates":[104.06092626250006,1.117360892500045]},"id":null}]}