{"type":"FeatureCollection","features":[{"type":"Feature","properties":{"parent_code":"6503","parent_name":"Nunukan","code":"","name":"Krayan","kind":"District"},"geometry":{"type":"Point","coordinates":[115.69821447050003,3.8673210825000695]},"id":null},{"type":"Feature","properties":{"parent_code":"6503","parent_name":"Nunukan","code":"","name":"Sebuku","kind":"District"},"geometry":{"type":"Point","coordinates":[117.06525383650006,3.9955994610000403]},"id":null},{"type":"Feature","properties":{"parent_code":"6503","parent_name":"Nunukan","code":"","name":"Sembakung","kind":"District"},"geometry":{"type":"Point","coordinates":[117.34502899250003,3.8030868310000585]},"id":null},{"type":"Feature","properties":{"parent_code":"6503","parent_name":"Nunukan","code":"","name":"Lumbis","kind":"District"},"geometry":{"type":"Point","coordinates":[116.31929349800009,4.037127542500019]},"id":null},{"type":"Feature","properties":{"parent_code":"6503","parent_name":"Nunukan","code":"","name":"Nunukan Selatan","kind":"District"},"geometry":{"type":"Point","coordinates":[117.70200804450002,4.054773498000031]},"id":null},{"type":"Feature","properties":{"parent_code":"6503","parent_name":"Nunukan","code":"","name":"Krayan Selatan","kind":"District"},"geometry":{"type":"Point","coordinates":[115.70163360300006,3.5822455265000315]},"id":null},{"type":"Feature","properties":{"parent_code":"6503","parent_name":"Nunukan","code":"","name":"Sebatik Barat","kind":"District"},"geometry":{"type":"Point","coordinates":[117.7674531455001,4.104966493500029]},"id":null},{"type":"Feature","properties":{"parent_code":"6503","parent_name":"Nunukan","code":"","name":"Sebatik","kind":"District"},"geometry":{"type":"Point","coordinates":[117.88462338500005,4.067813718500048]},"id":null},{"type":"Feature","properties":{"parent_code":"6503","parent_name":"Nunukan","code":"","name":"Nunukan","kind":"District"},"geometry":{"type":"Point","coordinates":[117.49379711500006,3.9877998465000246]},"id":null},{"type":"Feature","properties":{"parent_code":"6503","parent_name":"Nunukan","code":"","name":"Sembakung Atulai","kind":"District"},"geometry":{"type":"Point","coordinates":[116.81923445750004,3.820814338000048]},"id":null},{"type":"Feature","properties":{"parent_code":"6503","parent_name":"Nunukan","code":"","name":"Krayan Tengah","kind":"District"},"geometry":{"type":"Point","coordinates":[115.86705423250004,3.7151821665000564]},"id":null},{"type":"Feature","properties":{"parent_code":"6503","parent_name":"Nunukan","code":"","name":"Tulin Onsoi","kind":"District"},"geometry":{"type":"Point","coordinates":[116.93518661950003,4.199287459000033]},"id":null},{"type":"Feature","properties":{"parent_code":"6503","parent_name":"Nunukan","code":"","name":"Lumbis Ogong","kind":"District"},"geometry":{"type":"Point","coordinates":[116.54811987350007,4.105005492500055]},"id":null},{"type":"Feature","properties":{"parent_code":"6503","parent_name":"Nunukan","code":"","name":"Krayan Timur","kind":"District"},"geometry":{"type":"Point","coordinates":[115.83042681850009,4.066939650500046]},"id":null},{"type":"Feature","properties":{"parent_code":"6503","parent_name":"Nunukan","code":"","name":"Krayan Barat","kind":"District"},"geometry":{"type":"Point","coordinates":[115.67409067950007,3.7870025400000316]},"id":null},{"type":"Feature","properties":{"parent_code":"6503","parent_name":"Nunukan","code":"","name":"Sebatik Tengah","kind":"District"},"geometry":{"type":"Point","coordinates":[117.81445757950007,4.137968321000045]},"id":null},{"type":"Feature","properties":{"parent_code":"6503","parent_name":"Nunukan","code":"","name":"Sei Menggaris","kind":"District"},"geometry":{"type":"Point","coordinates":[117.31954004000005,4.22737885500004]},"id":null},{"type":"Feature","properties":{"parent_code":"6503","parent_name":"Nunukan","code":"","name":"Sebatik Timur","kind":"District"},"geometry":{"type":"Point","coordinates":[117.88054380550005,4.118416378500029]},"id":null},{"type":"Feature","properties":{"parent_code":"6503","parent_name":"Nunukan","code":"","name":"Sebatik Utara","kind":"District"},"geometry":{"type":"Point","coordinates":[117.88516593150007,4.145761137500074]},"id":null},{"type":"Feature","properties":{"parent_code":"6503","parent_name":"Nunukan","code":"","name":"Lumbis Pansiangan","kind":"District"},"geometry":{"type":"Point","coordinates":[116.38199213650006,4.246683816000058]},"id":null},{"type":"Feature","properties":{"parent_code":"6503","parent_name":"Nunukan","code":"","name":"Lumbis Hulu","kind":"District"},"geometry":{"type":"Point","coordinates":[116.08115134400003,4.298435269000038]},"id":null}]}