{"type":"FeatureCollection","features":[{"type":"Feature","properties":{"parent_code":"2103","parent_name":"Natuna","code":"","name":"Bunguran Barat","kind":"District"},"geometry":{"type":"Point","coordinates":[108.10132031250006,3.807296179500042]},"id":null},{"type":"Feature","properties":{"parent_code":"2103","parent_name":"Natuna","code":"","name":"Serasan","kind":"District"},"geometry":{"type":"Point","coordinates":[109.01994470650004,2.4550304625000154]},"id":null},{"type":"Feature","properties":{"parent_code":"2103","parent_name":"Natuna","code":"","name":"Midai","kind":"District"},"geometry":{"type":"Point","coordinates":[107.69598083700006,3.185428067000032]},"id":null},{"type":"Feature","properties":{"parent_code":"2103","parent_name":"Natuna","code":"","name":"Subi","kind":"District"},"geometry":{"type":"Point","coordinates":[108.75117704000002,2.856145494500055]},"id":null},{"type":"Feature","properties":{"parent_code":"2103","parent_name":"Natuna","code":"","name":"Bunguran Timur","kind":"District"},"geometry":{"type":"Point","coordinates":[108.34983348750006,3.9067310425000414]},"id":null},{"type":"Feature","properties":{"parent_code":"2103","parent_name":"Natuna","code":"","name":"Bunguran Utara","kind":"District"},"geometry":{"type":"Point","coordinates":[108.04136865650005,4.0911289820000425]},"id":null},{"type":"Feature","properties":{"parent_code":"2103","parent_name":"Natuna","code":"","name":"Bunguran Tengah","kind":"District"},"geometry":{"type":"Point","coordinates":[108.27097854550004,3.901870385500075]},"id":null},{"type":"Feature","properties":{"parent_code":"2103","parent_name":"Natuna","code":"","name":"Bunguran Timur Laut","kind":"District"},"geometry":{"type":"Point","coordinates":[108.25833876450005,4.0729720485000485]},"id":null},{"type":"Feature","properties":{"parent_code":"2103","parent_name":"Natuna","code":"","name":"Bunguran Selatan","kind":"District"},"geometry":{"type":"Point","coordinates":[108.28561943300008,3.7583509640000443]},"id":null},{"type":"Feature","properties":{"parent_code":"2103","parent_name":"Natuna","code":"","name":"Serasan Timur","kind":"District"},"geometry":{"type":"Point","coordinates":[109.09911349650005,2.550648052500037]},"id":null},{"type":"Feature","properties":{"parent_code":"2103","parent_name":"Natuna","code":"","name":"Pulau Laut","kind":"District"},"geometry":{"type":"Point","coordinates":[107.85347475550009,4.6092164365000485]},"id":null},{"type":"Feature","properties":{"parent_code":"2103","parent_name":"Natuna","code":"","name":"Pulau Tiga","kind":"District"},"geometry":{"type":"Point","coordinates":[108.09718509800001,3.63000318050004]},"id":null},{"type":"Feature","properties":{"parent_code":"2103","parent_name":"Natuna","code":"","name":"Bunguran Batubi","kind":"District"},"geometry":{"type":"Point","coordinates":[108.15898263450006,3.86137691600004]},"id":null},{"type":"Feature","properties":{"parent_code":"2103","parent_name":"Natuna","code":"","name":"Pulau Tiga Barat","kind":"District"},"geometry":{"type":"Point","coordinates":[108.08125321550006,3.6694811040000275]},"id":null},{"type":"Feature","properties":{"parent_code":"2103","parent_name":"Natuna","code":"","name":"Suak Midai","kind":"District"},"geometry":{"type":"Point","coordinates":[107.79272372650007,2.9991935225000645]},"id":null}]}