{"type":"FeatureCollection","features":[{"type":"Feature","properties":{"parent_code":"1108","parent_name":"Aceh Utara","code":"","name":"Seunuddon","kind":"District"},"geometry":{"type":"Point","coordinates":[97.40662515450006,5.197532721000044]},"id":null},{"type":"Feature","properties":{"parent_code":"1108","parent_name":"Aceh Utara","code":"","name":"Meurah Mulia","kind":"District"},"geometry":{"type":"Point","coordinates":[97.18993809600008,5.054889923000047]},"id":null},{"type":"Feature","properties":{"parent_code":"1108","parent_name":"Aceh Utara","code":"","name":"Samudera","kind":"District"},"geometry":{"type":"Point","coordinates":[97.23042437550006,5.105493421500029]},"id":null},{"type":"Feature","properties":{"parent_code":"1108","parent_name":"Aceh Utara","code":"","name":"Baktiya","kind":"District"},"geometry":{"type":"Point","coordinates":[97.41178709900004,5.074682460000048]},"id":null},{"type":"Feature","properties":{"parent_code":"1108","parent_name":"Aceh Utara","code":"","name":"Dewantara","kind":"District"},"geometry":{"type":"Point","coordinates":[97.00661121300004,5.232576185000056]},"id":null},{"type":"Feature","properties":{"parent_code":"1108","parent_name":"Aceh Utara","code":"","name":"Matangkuli","kind":"District"},"geometry":{"type":"Point","coordinates":[97.26806174900005,5.029816125000053]},"id":null},{"type":"Feature","properties":{"parent_code":"1108","parent_name":"Aceh Utara","code":"","name":"Muara Batu","kind":"District"},"geometry":{"type":"Point","coordinates":[96.95077399000004,5.239579786000036]},"id":null},{"type":"Feature","properties":{"parent_code":"1108","parent_name":"Aceh Utara","code":"","name":"Kuta Makmur","kind":"District"},"geometry":{"type":"Point","coordinates":[97.03988428400007,5.075877080000055]},"id":null},{"type":"Feature","properties":{"parent_code":"1108","parent_name":"Aceh Utara","code":"","name":"Lhoksukon","kind":"District"},"geometry":{"type":"Point","coordinates":[97.36808624600008,5.033549441000048]},"id":null},{"type":"Feature","properties":{"parent_code":"1108","parent_name":"Aceh Utara","code":"","name":"Langkahan","kind":"District"},"geometry":{"type":"Point","coordinates":[97.38431612550008,4.912097493000033]},"id":null},{"type":"Feature","properties":{"parent_code":"1108","parent_name":"Aceh Utara","code":"","name":"Baktiya Barat","kind":"District"},"geometry":{"type":"Point","coordinates":[97.34512230000007,5.127770077000065]},"id":null},{"type":"Feature","properties":{"parent_code":"1108","parent_name":"Aceh Utara","code":"","name":"Tanah Luas","kind":"District"},"geometry":{"type":"Point","coordinates":[97.19324626000005,5.017383627000044]},"id":null},{"type":"Feature","properties":{"parent_code":"1108","parent_name":"Aceh Utara","code":"","name":"Tanah Pasir","kind":"District"},"geometry":{"type":"Point","coordinates":[97.26490454950007,5.130533818000032]},"id":null},{"type":"Feature","properties":{"parent_code":"1108","parent_name":"Aceh Utara","code":"","name":"Syamtalira Aron","kind":"District"},"geometry":{"type":"Point","coordinates":[97.25722001400004,5.100204663000056]},"id":null},{"type":"Feature","properties":{"parent_code":"1108","parent_name":"Aceh Utara","code":"","name":"Syamtalira Bayu","kind":"District"},"geometry":{"type":"Point","coordinates":[97.17729236850008,5.082887268000011]},"id":null},{"type":"Feature","properties":{"parent_code":"1108","parent_name":"Aceh Utara","code":"","name":"Nisam","kind":"District"},"geometry":{"type":"Point","coordinates":[97.00640174500006,5.16966117900003]},"id":null},{"type":"Feature","properties":{"parent_code":"1108","parent_name":"Aceh Utara","code":"","name":"Cot Girek","kind":"District"},"geometry":{"type":"Point","coordinates":[97.36194820900005,4.915137426000058]},"id":null},{"type":"Feature","properties":{"parent_code":"1108","parent_name":"Aceh Utara","code":"","name":"T. Jambo Aye","kind":"District"},"geometry":{"type":"Point","coordinates":[97.46217128850006,5.100925453000059]},"id":null},{"type":"Feature","properties":{"parent_code":"1108","parent_name":"Aceh Utara","code":"","name":"Sawang","kind":"District"},"geometry":{"type":"Point","coordinates":[96.88818471100004,5.057734184000054]},"id":null},{"type":"Feature","properties":{"parent_code":"1108","parent_name":"Aceh Utara","code":"","name":"Paya Bakong","kind":"District"},"geometry":{"type":"Point","coordinates":[97.12534808450005,4.929477006500036]},"id":null},{"type":"Feature","properties":{"parent_code":"1108","parent_name":"Aceh Utara","code":"","name":"Lapang","kind":"District"},"geometry":{"type":"Point","coordinates":[97.29145638650007,5.145021837500053]},"id":null},{"type":"Feature","properties":{"parent_code":"1108","parent_name":"Aceh Utara","code":"","name":"Pirak Timur","kind":"District"},"geometry":{"type":"Point","coordinates":[97.28271210750006,4.981987607000036]},"id":null},{"type":"Feature","properties":{"parent_code":"1108","parent_name":"Aceh Utara","code":"","name":"Nibong","kind":"District"},"geometry":{"type":"Point","coordinates":[97.21870146000006,5.042574434000045]},"id":null},{"type":"Feature","properties":{"parent_code":"1108","parent_name":"Aceh Utara","code":"","name":"Simpang Kramat","kind":"District"},"geometry":{"type":"Point","coordinates":[97.07462616200007,5.049908689000063]},"id":null},{"type":"Feature","properties":{"parent_code":"1108","parent_name":"Aceh Utara","code":"","name":"Nisam Antara","kind":"District"},"geometry":{"type":"Point","coordinates":[96.94159219200006,5.005880513000051]},"id":null},{"type":"Feature","properties":{"parent_code":"1108","parent_name":"Aceh Utara","code":"","name":"Geuredong Pase","kind":"District"},"geometry":{"type":"Point","coordinates":[97.03038365450004,4.96319427800006]},"id":null},{"type":"Feature","properties":{"parent_code":"1108","parent_name":"Aceh Utara","code":"","name":"Banda Baro","kind":"District"},"geometry":{"type":"Point","coordinates":[96.97322896400007,5.17757203900004]},"id":null}]}