{"type":"FeatureCollection","features":[{"type":"Feature","properties":{"parent_code":"1111","parent_name":"Bireuen","code":"","name":"Samalanga","kind":"District"},"geometry":{"type":"Point","coordinates":[96.35383945550007,5.084949332500059]},"id":null},{"type":"Feature","properties":{"parent_code":"1111","parent_name":"Bireuen","code":"","name":"Jeunieb","kind":"District"},"geometry":{"type":"Point","coordinates":[96.47712897150006,5.061893646000044]},"id":null},{"type":"Feature","properties":{"parent_code":"1111","parent_name":"Bireuen","code":"","name":"Peusangan","kind":"District"},"geometry":{"type":"Point","coordinates":[96.77502102200006,5.196842522500049]},"id":null},{"type":"Feature","properties":{"parent_code":"1111","parent_name":"Bireuen","code":"","name":"Makmur","kind":"District"},"geometry":{"type":"Point","coordinates":[96.85281355250007,5.151799182500071]},"id":null},{"type":"Feature","properties":{"parent_code":"1111","parent_name":"Bireuen","code":"","name":"Peudada","kind":"District"},"geometry":{"type":"Point","coordinates":[96.56574789200008,5.065611211000032]},"id":null},{"type":"Feature","properties":{"parent_code":"1111","parent_name":"Bireuen","code":"","name":"Jeumpa","kind":"District"},"geometry":{"type":"Point","coordinates":[96.64947896850003,5.145536182000058]},"id":null},{"type":"Feature","properties":{"parent_code":"1111","parent_name":"Bireuen","code":"","name":"Juli","kind":"District"},"geometry":{"type":"Point","coordinates":[96.65989496100008,5.071065300000043]},"id":null},{"type":"Feature","properties":{"parent_code":"1111","parent_name":"Bireuen","code":"","name":"Gandapura","kind":"District"},"geometry":{"type":"Point","coordinates":[96.88400543400004,5.225713138000032]},"id":null},{"type":"Feature","properties":{"parent_code":"1111","parent_name":"Bireuen","code":"","name":"Pandrah","kind":"District"},"geometry":{"type":"Point","coordinates":[96.44241769350006,5.074073569000063]},"id":null},{"type":"Feature","properties":{"parent_code":"1111","parent_name":"Bireuen","code":"","name":"Peulimbang","kind":"District"},"geometry":{"type":"Point","coordinates":[96.50977095100006,5.045777247500041]},"id":null},{"type":"Feature","properties":{"parent_code":"1111","parent_name":"Bireuen","code":"","name":"Kota Juang","kind":"District"},"geometry":{"type":"Point","coordinates":[96.71259487850006,5.187470163500052]},"id":null},{"type":"Feature","properties":{"parent_code":"1111","parent_name":"Bireuen","code":"","name":"Jangka","kind":"District"},"geometry":{"type":"Point","coordinates":[96.79955195800005,5.246826126000059]},"id":null},{"type":"Feature","properties":{"parent_code":"1111","parent_name":"Bireuen","code":"","name":"Simpang Mamplam","kind":"District"},"geometry":{"type":"Point","coordinates":[96.41727846700007,5.083581559000038]},"id":null},{"type":"Feature","properties":{"parent_code":"1111","parent_name":"Bireuen","code":"","name":"Peusangan Selatan","kind":"District"},"geometry":{"type":"Point","coordinates":[96.77757481350008,5.062854523500022]},"id":null},{"type":"Feature","properties":{"parent_code":"1111","parent_name":"Bireuen","code":"","name":"Kuta Blang","kind":"District"},"geometry":{"type":"Point","coordinates":[96.83477847250006,5.209348860000063]},"id":null},{"type":"Feature","properties":{"parent_code":"1111","parent_name":"Bireuen","code":"","name":"Kuala","kind":"District"},"geometry":{"type":"Point","coordinates":[96.71792246450005,5.231928576500053]},"id":null},{"type":"Feature","properties":{"parent_code":"1111","parent_name":"Bireuen","code":"","name":"Peusangan Siblah Krueng","kind":"District"},"geometry":{"type":"Point","coordinates":[96.80290231350008,5.121526535500067]},"id":null}]}