{"type":"FeatureCollection","features":[{"type":"Feature","properties":{"parent_code":"8104","parent_name":"Buru","code":"","name":"Namlea","kind":"District"},"geometry":{"type":"Point","coordinates":[127.04122761850005,-3.2557851714999515]},"id":null},{"type":"Feature","properties":{"parent_code":"8104","parent_name":"Buru","code":"","name":"Air Buaya","kind":"District"},"geometry":{"type":"Point","coordinates":[126.30344219900007,-3.2369893319999505]},"id":null},{"type":"Feature","properties":{"parent_code":"8104","parent_name":"Buru","code":"","name":"Waeapo","kind":"District"},"geometry":{"type":"Point","coordinates":[126.96315488350007,-3.2952861434999363]},"id":null},{"type":"Feature","properties":{"parent_code":"8104","parent_name":"Buru","code":"","name":"Waplau","kind":"District"},"geometry":{"type":"Point","coordinates":[126.78105020200007,-3.160413438999967]},"id":null},{"type":"Feature","properties":{"parent_code":"8104","parent_name":"Buru","code":"","name":"Lolong Guba","kind":"District"},"geometry":{"type":"Point","coordinates":[126.80049498950007,-3.5129172864999703]},"id":null},{"type":"Feature","properties":{"parent_code":"8104","parent_name":"Buru","code":"","name":"Waelata","kind":"District"},"geometry":{"type":"Point","coordinates":[126.94992077450007,-3.5103569784999706]},"id":null},{"type":"Feature","properties":{"parent_code":"8104","parent_name":"Buru","code":"","name":"Batabual","kind":"District"},"geometry":{"type":"Point","coordinates":[127.20770294350007,-3.490441063999953]},"id":null},{"type":"Feature","properties":{"parent_code":"8104","parent_name":"Buru","code":"","name":"Lilialy","kind":"District"},"geometry":{"type":"Point","coordinates":[126.9967182210001,-3.189268503499932]},"id":null},{"type":"Feature","properties":{"parent_code":"8104","parent_name":"Buru","code":"","name":"Fena Leisela","kind":"District"},"geometry":{"type":"Point","coordinates":[126.65523174050008,-3.2839678644999424]},"id":null},{"type":"Feature","properties":{"parent_code":"8104","parent_name":"Buru","code":"","name":"Teluk Kaiely","kind":"District"},"geometry":{"type":"Point","coordinates":[127.11881755900004,-3.4377768774999424]},"id":null}]}