{"type":"FeatureCollection","features":[{"type":"Feature","properties":{"parent_code":"6403","parent_name":"Berau","code":"","name":"Gunung Tabur","kind":"District"},"geometry":{"type":"Point","coordinates":[117.55726092400005,2.323224043000012]},"id":null},{"type":"Feature","properties":{"parent_code":"6403","parent_name":"Berau","code":"","name":"Pulau Derawan","kind":"District"},"geometry":{"type":"Point","coordinates":[118.05421053950005,2.2287620380000415]},"id":null},{"type":"Feature","properties":{"parent_code":"6403","parent_name":"Berau","code":"","name":"Segah","kind":"District"},"geometry":{"type":"Point","coordinates":[116.91597474850005,2.197787057500019]},"id":null},{"type":"Feature","properties":{"parent_code":"6403","parent_name":"Berau","code":"","name":"Tanjung Redeb","kind":"District"},"geometry":{"type":"Point","coordinates":[117.47902926550006,2.1445984955000483]},"id":null},{"type":"Feature","properties":{"parent_code":"6403","parent_name":"Berau","code":"","name":"Biduk-Biduk","kind":"District"},"geometry":{"type":"Point","coordinates":[118.72761348600005,1.1802267270000266]},"id":null},{"type":"Feature","properties":{"parent_code":"6403","parent_name":"Berau","code":"","name":"Teluk Bayur","kind":"District"},"geometry":{"type":"Point","coordinates":[117.31117034400006,2.0376431290000596]},"id":null},{"type":"Feature","properties":{"parent_code":"6403","parent_name":"Berau","code":"","name":"Talisayan","kind":"District"},"geometry":{"type":"Point","coordinates":[118.18151750300007,1.484189912500028]},"id":null},{"type":"Feature","properties":{"parent_code":"6403","parent_name":"Berau","code":"","name":"Sambaliung","kind":"District"},"geometry":{"type":"Point","coordinates":[117.51356767400011,1.9771659915000446]},"id":null},{"type":"Feature","properties":{"parent_code":"6403","parent_name":"Berau","code":"","name":"Kelay","kind":"District"},"geometry":{"type":"Point","coordinates":[116.82006819500005,1.9166006985000106]},"id":null},{"type":"Feature","properties":{"parent_code":"6403","parent_name":"Berau","code":"","name":"Tabalar","kind":"District"},"geometry":{"type":"Point","coordinates":[117.73033762950001,1.6793622235000494]},"id":null},{"type":"Feature","properties":{"parent_code":"6403","parent_name":"Berau","code":"","name":"Biatan","kind":"District"},"geometry":{"type":"Point","coordinates":[117.98057258900008,1.5159550895000395]},"id":null},{"type":"Feature","properties":{"parent_code":"6403","parent_name":"Berau","code":"","name":"Maratua","kind":"District"},"geometry":{"type":"Point","coordinates":[118.77109329450008,2.0461383210000292]},"id":null},{"type":"Feature","properties":{"parent_code":"6403","parent_name":"Berau","code":"","name":"Batu Putih","kind":"District"},"geometry":{"type":"Point","coordinates":[118.44588678400004,1.3607040075000612]},"id":null}]}