{"type":"FeatureCollection","features":[{"type":"Feature","properties":{"parent_code":"6411","parent_name":"Mahakam Ulu","code":"","name":"Laham","kind":"District"},"geometry":{"type":"Point","coordinates":[115.0747726295001,0.0505482255000515]},"id":null},{"type":"Feature","properties":{"parent_code":"6411","parent_name":"Mahakam Ulu","code":"","name":"Long Apari","kind":"District"},"geometry":{"type":"Point","coordinates":[114.20574720150005,1.022692642000038]},"id":null},{"type":"Feature","properties":{"parent_code":"6411","parent_name":"Mahakam Ulu","code":"","name":"Long Bagun","kind":"District"},"geometry":{"type":"Point","coordinates":[115.3286962205,0.7991671905000289]},"id":null},{"type":"Feature","properties":{"parent_code":"6411","parent_name":"Mahakam Ulu","code":"","name":"Long Hubung","kind":"District"},"geometry":{"type":"Point","coordinates":[115.51343031950006,0.223417722500045]},"id":null},{"type":"Feature","properties":{"parent_code":"6411","parent_name":"Mahakam Ulu","code":"","name":"Long Pahangai","kind":"District"},"geometry":{"type":"Point","coordinates":[114.66617897600003,0.9748909705000415]},"id":null}]}