{"type":"FeatureCollection","features":[{"type":"Feature","properties":{"parent_code":"1110","parent_name":"Aceh Singkil","code":"","name":"Pulau Banyak","kind":"District"},"geometry":{"type":"Point","coordinates":[97.40453126300005,2.1806560050000314]},"id":null},{"type":"Feature","properties":{"parent_code":"1110","parent_name":"Aceh Singkil","code":"","name":"Singkil","kind":"District"},"geometry":{"type":"Point","coordinates":[97.80622652600005,2.335658102500048]},"id":null},{"type":"Feature","properties":{"parent_code":"1110","parent_name":"Aceh Singkil","code":"","name":"Simpang Kanan","kind":"District"},"geometry":{"type":"Point","coordinates":[98.03709292050007,2.4441444290000334]},"id":null},{"type":"Feature","properties":{"parent_code":"1110","parent_name":"Aceh Singkil","code":"","name":"Kota Baharu","kind":"District"},"geometry":{"type":"Point","coordinates":[97.83144432950007,2.456704367000043]},"id":null},{"type":"Feature","properties":{"parent_code":"1110","parent_name":"Aceh Singkil","code":"","name":"Gunung Meriah","kind":"District"},"geometry":{"type":"Point","coordinates":[97.96937813450006,2.3859161865000544]},"id":null},{"type":"Feature","properties":{"parent_code":"1110","parent_name":"Aceh Singkil","code":"","name":"Danau Paris","kind":"District"},"geometry":{"type":"Point","coordinates":[98.10931294200006,2.2957448830000544]},"id":null},{"type":"Feature","properties":{"parent_code":"1110","parent_name":"Aceh Singkil","code":"","name":"Suro Makmur","kind":"District"},"geometry":{"type":"Point","coordinates":[98.03020973450006,2.5154981870000483]},"id":null},{"type":"Feature","properties":{"parent_code":"1110","parent_name":"Aceh Singkil","code":"","name":"Singkil Utara","kind":"District"},"geometry":{"type":"Point","coordinates":[97.96998826150008,2.2718920395000453]},"id":null},{"type":"Feature","properties":{"parent_code":"1110","parent_name":"Aceh Singkil","code":"","name":"Pulau Banyak Barat","kind":"District"},"geometry":{"type":"Point","coordinates":[97.21752106900007,2.1648657580000474]},"id":null},{"type":"Feature","properties":{"parent_code":"1110","parent_name":"Aceh Singkil","code":"","name":"Singkohor","kind":"District"},"geometry":{"type":"Point","coordinates":[97.93107414750006,2.490442932500059]},"id":null},{"type":"Feature","properties":{"parent_code":"1110","parent_name":"Aceh Singkil","code":"","name":"Kuala Baru","kind":"District"},"geometry":{"type":"Point","coordinates":[97.72406564900004,2.363206801500041]},"id":null}]}