{"type":"FeatureCollection","features":[{"type":"Feature","properties":{"parent_code":"1115","parent_name":"Nagan Raya","code":"","name":"Beutong Ateuh Banggalang","kind":"District"},"geometry":{"type":"Point","coordinates":[96.59841289350007,4.466096522500016]},"id":null},{"type":"Feature","properties":{"parent_code":"1115","parent_name":"Nagan Raya","code":"","name":"Darul Makmur","kind":"District"},"geometry":{"type":"Point","coordinates":[96.60441325750008,4.044260307500053]},"id":null},{"type":"Feature","properties":{"parent_code":"1115","parent_name":"Nagan Raya","code":"","name":"Suka Makmue","kind":"District"},"geometry":{"type":"Point","coordinates":[96.33037685050004,4.1842230195000525]},"id":null},{"type":"Feature","properties":{"parent_code":"1115","parent_name":"Nagan Raya","code":"","name":"Seunagan Timur","kind":"District"},"geometry":{"type":"Point","coordinates":[96.37518966200008,4.335200064000048]},"id":null},{"type":"Feature","properties":{"parent_code":"1115","parent_name":"Nagan Raya","code":"","name":"Beutong","kind":"District"},"geometry":{"type":"Point","coordinates":[96.50216336850005,4.300042688500039]},"id":null},{"type":"Feature","properties":{"parent_code":"1115","parent_name":"Nagan Raya","code":"","name":"Tripa Makmur","kind":"District"},"geometry":{"type":"Point","coordinates":[96.41198234350006,3.9238788745000477]},"id":null},{"type":"Feature","properties":{"parent_code":"1115","parent_name":"Nagan Raya","code":"","name":"Kuala Pesisir","kind":"District"},"geometry":{"type":"Point","coordinates":[96.26014795250006,4.0504933665000635]},"id":null},{"type":"Feature","properties":{"parent_code":"1115","parent_name":"Nagan Raya","code":"","name":"Tadu Raya","kind":"District"},"geometry":{"type":"Point","coordinates":[96.40529788900005,4.064387926000023]},"id":null},{"type":"Feature","properties":{"parent_code":"1115","parent_name":"Nagan Raya","code":"","name":"Kuala","kind":"District"},"geometry":{"type":"Point","coordinates":[96.29196642050005,4.088731323000012]},"id":null},{"type":"Feature","properties":{"parent_code":"1115","parent_name":"Nagan Raya","code":"","name":"Seunagan","kind":"District"},"geometry":{"type":"Point","coordinates":[96.30672696950006,4.230312680000026]},"id":null}]}