{"type":"FeatureCollection","features":[{"type":"Feature","properties":{"parent_code":"1117","parent_name":"Bener Meriah","code":"","name":"Timang Gajah","kind":"District"},"geometry":{"type":"Point","coordinates":[96.75287990300006,4.764933710000065]},"id":null},{"type":"Feature","properties":{"parent_code":"1117","parent_name":"Bener Meriah","code":"","name":"Bener Kelipah","kind":"District"},"geometry":{"type":"Point","coordinates":[96.92219043300005,4.769325814000041]},"id":null},{"type":"Feature","properties":{"parent_code":"1117","parent_name":"Bener Meriah","code":"","name":"Bukit","kind":"District"},"geometry":{"type":"Point","coordinates":[96.87704198350008,4.726726143500031]},"id":null},{"type":"Feature","properties":{"parent_code":"1117","parent_name":"Bener Meriah","code":"","name":"Wih Pesam","kind":"District"},"geometry":{"type":"Point","coordinates":[96.78099383350005,4.724540273000031]},"id":null},{"type":"Feature","properties":{"parent_code":"1117","parent_name":"Bener Meriah","code":"","name":"Mesidah","kind":"District"},"geometry":{"type":"Point","coordinates":[97.04972948950004,4.812414579500057]},"id":null},{"type":"Feature","properties":{"parent_code":"1117","parent_name":"Bener Meriah","code":"","name":"Syiah Utama","kind":"District"},"geometry":{"type":"Point","coordinates":[97.14831299200003,4.7439485050000485]},"id":null},{"type":"Feature","properties":{"parent_code":"1117","parent_name":"Bener Meriah","code":"","name":"Bandar","kind":"District"},"geometry":{"type":"Point","coordinates":[96.93409624500006,4.714850184000056]},"id":null},{"type":"Feature","properties":{"parent_code":"1117","parent_name":"Bener Meriah","code":"","name":"Pintu Rime Gayo","kind":"District"},"geometry":{"type":"Point","coordinates":[96.70538959400005,4.896387214000043]},"id":null},{"type":"Feature","properties":{"parent_code":"1117","parent_name":"Bener Meriah","code":"","name":"Permata","kind":"District"},"geometry":{"type":"Point","coordinates":[96.92991880900007,4.837899381000057]},"id":null},{"type":"Feature","properties":{"parent_code":"1117","parent_name":"Bener Meriah","code":"","name":"Gajah Putih","kind":"District"},"geometry":{"type":"Point","coordinates":[96.77967392800008,4.812555619500046]},"id":null}]}