{"type":"FeatureCollection","features":[{"type":"Feature","properties":{"parent_code":"6206","parent_name":"Katingan","code":"","name":"Mendawai","kind":"District"},"geometry":{"type":"Point","coordinates":[113.42261492250009,-2.7921393109999713]},"id":null},{"type":"Feature","properties":{"parent_code":"6206","parent_name":"Katingan","code":"","name":"Tewang Sangalang Garing","kind":"District"},"geometry":{"type":"Point","coordinates":[113.25959911150005,-1.7419148854999664]},"id":null},{"type":"Feature","properties":{"parent_code":"6206","parent_name":"Katingan","code":"","name":"Pulau Malan","kind":"District"},"geometry":{"type":"Point","coordinates":[113.27946855500005,-1.568647339499961]},"id":null},{"type":"Feature","properties":{"parent_code":"6206","parent_name":"Katingan","code":"","name":"Kamipang","kind":"District"},"geometry":{"type":"Point","coordinates":[113.44662549150004,-2.3192701294999267]},"id":null},{"type":"Feature","properties":{"parent_code":"6206","parent_name":"Katingan","code":"","name":"Katingan Hilir","kind":"District"},"geometry":{"type":"Point","coordinates":[113.34402901700008,-1.9043310759999486]},"id":null},{"type":"Feature","properties":{"parent_code":"6206","parent_name":"Katingan","code":"","name":"Marikit","kind":"District"},"geometry":{"type":"Point","coordinates":[112.65733355850006,-1.0110588609999525]},"id":null},{"type":"Feature","properties":{"parent_code":"6206","parent_name":"Katingan","code":"","name":"Katingan Hulu","kind":"District"},"geometry":{"type":"Point","coordinates":[112.3734400940001,-1.0085737759999636]},"id":null},{"type":"Feature","properties":{"parent_code":"6206","parent_name":"Katingan","code":"","name":"Katingan Tengah","kind":"District"},"geometry":{"type":"Point","coordinates":[113.02387715800006,-1.499298330999949]},"id":null},{"type":"Feature","properties":{"parent_code":"6206","parent_name":"Katingan","code":"","name":"Sanaman Mantikei","kind":"District"},"geometry":{"type":"Point","coordinates":[112.99116216150009,-1.029910738999945]},"id":null},{"type":"Feature","properties":{"parent_code":"6206","parent_name":"Katingan","code":"","name":"Katingan Kuala","kind":"District"},"geometry":{"type":"Point","coordinates":[113.46987179800004,-3.088113560499949]},"id":null},{"type":"Feature","properties":{"parent_code":"6206","parent_name":"Katingan","code":"","name":"Tasik Payawan","kind":"District"},"geometry":{"type":"Point","coordinates":[113.43451176200006,-2.0295240619999504]},"id":null},{"type":"Feature","properties":{"parent_code":"6206","parent_name":"Katingan","code":"","name":"Petak Malai","kind":"District"},"geometry":{"type":"Point","coordinates":[112.96723904100003,-0.7932000804999575]},"id":null},{"type":"Feature","properties":{"parent_code":"6206","parent_name":"Katingan","code":"","name":"Bukit Raya","kind":"District"},"geometry":{"type":"Point","coordinates":[112.23348199350005,-0.870356734999973]},"id":null}]}