{"type":"FeatureCollection","features":[{"type":"Feature","properties":{"parent_code":"6207","parent_name":"Seruyan","code":"","name":"Seruyan Hilir","kind":"District"},"geometry":{"type":"Point","coordinates":[112.32045681900007,-3.0953008224999503]},"id":null},{"type":"Feature","properties":{"parent_code":"6207","parent_name":"Seruyan","code":"","name":"Hanau","kind":"District"},"geometry":{"type":"Point","coordinates":[112.15131533000005,-2.517581800999949]},"id":null},{"type":"Feature","properties":{"parent_code":"6207","parent_name":"Seruyan","code":"","name":"Seruyan Hulu","kind":"District"},"geometry":{"type":"Point","coordinates":[111.86879218000004,-1.1383860084999635]},"id":null},{"type":"Feature","properties":{"parent_code":"6207","parent_name":"Seruyan","code":"","name":"Seruyan Tengah","kind":"District"},"geometry":{"type":"Point","coordinates":[112.11022805900006,-1.9306220384999615]},"id":null},{"type":"Feature","properties":{"parent_code":"6207","parent_name":"Seruyan","code":"","name":"Danau Sembuluh","kind":"District"},"geometry":{"type":"Point","coordinates":[112.30162341850007,-2.78623762899997]},"id":null},{"type":"Feature","properties":{"parent_code":"6207","parent_name":"Seruyan","code":"","name":"Danau Seluluk","kind":"District"},"geometry":{"type":"Point","coordinates":[112.23582945700008,-2.3418962229999356]},"id":null},{"type":"Feature","properties":{"parent_code":"6207","parent_name":"Seruyan","code":"","name":"Batu Ampar","kind":"District"},"geometry":{"type":"Point","coordinates":[112.19434890800005,-2.221837995999948]},"id":null},{"type":"Feature","properties":{"parent_code":"6207","parent_name":"Seruyan","code":"","name":"Seruyan Hilir Timur","kind":"District"},"geometry":{"type":"Point","coordinates":[112.64078777900005,-3.2747309754999496]},"id":null},{"type":"Feature","properties":{"parent_code":"6207","parent_name":"Seruyan","code":"","name":"Seruyan Raya","kind":"District"},"geometry":{"type":"Point","coordinates":[112.4184493410001,-2.5289578049999477]},"id":null},{"type":"Feature","properties":{"parent_code":"6207","parent_name":"Seruyan","code":"","name":"Suling Tambun","kind":"District"},"geometry":{"type":"Point","coordinates":[111.65200221500007,-1.317800823499965]},"id":null}]}