{"type":"FeatureCollection","features":[{"type":"Feature","properties":{"parent_code":"6211","parent_name":"Pulang Pisau","code":"","name":"Pulang Pisau","kind":"District"},"geometry":{"type":"Point","coordinates":[114.2041913010001,-2.7594387789999644]},"id":null},{"type":"Feature","properties":{"parent_code":"6211","parent_name":"Pulang Pisau","code":"","name":"Maliku","kind":"District"},"geometry":{"type":"Point","coordinates":[114.15949785800007,-2.9724410184999495]},"id":null},{"type":"Feature","properties":{"parent_code":"6211","parent_name":"Pulang Pisau","code":"","name":"Kahayan Tengah","kind":"District"},"geometry":{"type":"Point","coordinates":[114.0052315205001,-1.9965028739999293]},"id":null},{"type":"Feature","properties":{"parent_code":"6211","parent_name":"Pulang Pisau","code":"","name":"Banama Tingang","kind":"District"},"geometry":{"type":"Point","coordinates":[113.91445557150007,-1.6930154104999535]},"id":null},{"type":"Feature","properties":{"parent_code":"6211","parent_name":"Pulang Pisau","code":"","name":"Jabiren","kind":"District"},"geometry":{"type":"Point","coordinates":[114.1847477875001,-2.428414298999968]},"id":null},{"type":"Feature","properties":{"parent_code":"6211","parent_name":"Pulang Pisau","code":"","name":"Sebangau Kuala","kind":"District"},"geometry":{"type":"Point","coordinates":[113.85804356900007,-2.9036366614999456]},"id":null},{"type":"Feature","properties":{"parent_code":"6211","parent_name":"Pulang Pisau","code":"","name":"Pandih Batu","kind":"District"},"geometry":{"type":"Point","coordinates":[114.10138860000006,-3.0778796334999754]},"id":null},{"type":"Feature","properties":{"parent_code":"6211","parent_name":"Pulang Pisau","code":"","name":"Kahayan Kuala","kind":"District"},"geometry":{"type":"Point","coordinates":[113.91243186800006,-3.2940155139999376]},"id":null}]}