{"type":"FeatureCollection","features":[{"type":"Feature","properties":{"parent_code":"6213","parent_name":"Barito Timur","code":"","name":"Paju Epat","kind":"District"},"geometry":{"type":"Point","coordinates":[115.0258493775001,-2.2022738624999647]},"id":null},{"type":"Feature","properties":{"parent_code":"6213","parent_name":"Barito Timur","code":"","name":"Raren Batuah","kind":"District"},"geometry":{"type":"Point","coordinates":[115.17929169900009,-1.7028955944999495]},"id":null},{"type":"Feature","properties":{"parent_code":"6213","parent_name":"Barito Timur","code":"","name":"Dusun Tengah","kind":"District"},"geometry":{"type":"Point","coordinates":[115.22605723450005,-1.7491291529999555]},"id":null},{"type":"Feature","properties":{"parent_code":"6213","parent_name":"Barito Timur","code":"","name":"Pematang Karau","kind":"District"},"geometry":{"type":"Point","coordinates":[115.02587725950008,-1.836938463499962]},"id":null},{"type":"Feature","properties":{"parent_code":"6213","parent_name":"Barito Timur","code":"","name":"Paku","kind":"District"},"geometry":{"type":"Point","coordinates":[115.19540448300006,-1.902216016499949]},"id":null},{"type":"Feature","properties":{"parent_code":"6213","parent_name":"Barito Timur","code":"","name":"Patangkep Tutui","kind":"District"},"geometry":{"type":"Point","coordinates":[115.35192633900004,-1.9962646069999725]},"id":null},{"type":"Feature","properties":{"parent_code":"6213","parent_name":"Barito Timur","code":"","name":"Awang","kind":"District"},"geometry":{"type":"Point","coordinates":[115.24151170200008,-1.9553894214999445]},"id":null},{"type":"Feature","properties":{"parent_code":"6213","parent_name":"Barito Timur","code":"","name":"Dusun Timur","kind":"District"},"geometry":{"type":"Point","coordinates":[115.17651806700007,-2.091606378499961]},"id":null},{"type":"Feature","properties":{"parent_code":"6213","parent_name":"Barito Timur","code":"","name":"Banua Lima","kind":"District"},"geometry":{"type":"Point","coordinates":[115.20660152050004,-2.191669308999934]},"id":null},{"type":"Feature","properties":{"parent_code":"6213","parent_name":"Barito Timur","code":"","name":"Karusen Janang","kind":"District"},"geometry":{"type":"Point","coordinates":[115.10194908000005,-1.9482125869999434]},"id":null}]}