{"type":"FeatureCollection","features":[{"type":"Feature","properties":{"parent_code":"1903","parent_name":"Bangka Selatan","code":"","name":"Toboali","kind":"District"},"geometry":{"type":"Point","coordinates":[106.49448860150005,-2.928159617999967]},"id":null},{"type":"Feature","properties":{"parent_code":"1903","parent_name":"Bangka Selatan","code":"","name":"Simpang Rimba","kind":"District"},"geometry":{"type":"Point","coordinates":[105.97438431500007,-2.6364346569999664]},"id":null},{"type":"Feature","properties":{"parent_code":"1903","parent_name":"Bangka Selatan","code":"","name":"Payung","kind":"District"},"geometry":{"type":"Point","coordinates":[106.14343933200007,-2.637157798999965]},"id":null},{"type":"Feature","properties":{"parent_code":"1903","parent_name":"Bangka Selatan","code":"","name":"Lepar Pongok","kind":"District"},"geometry":{"type":"Point","coordinates":[106.78823428950005,-2.9394581694999715]},"id":null},{"type":"Feature","properties":{"parent_code":"1903","parent_name":"Bangka Selatan","code":"","name":"Air Gegas","kind":"District"},"geometry":{"type":"Point","coordinates":[106.43148722100008,-2.7361775084999636]},"id":null},{"type":"Feature","properties":{"parent_code":"1903","parent_name":"Bangka Selatan","code":"","name":"Kepulauan Pongok","kind":"District"},"geometry":{"type":"Point","coordinates":[107.05741598300004,-2.865584913999953]},"id":null},{"type":"Feature","properties":{"parent_code":"1903","parent_name":"Bangka Selatan","code":"","name":"Tukak Sadai","kind":"District"},"geometry":{"type":"Point","coordinates":[106.66493588250006,-3.0280076569999608]},"id":null},{"type":"Feature","properties":{"parent_code":"1903","parent_name":"Bangka Selatan","code":"","name":"Pulaubesar","kind":"District"},"geometry":{"type":"Point","coordinates":[106.15355647900006,-2.8020936944999444]},"id":null}]}