{"type":"FeatureCollection","features":[{"type":"Feature","properties":{"parent_code":"3208","parent_name":"Kuningan","code":"","name":"Garawangi","kind":"District"},"geometry":{"type":"Point","coordinates":[108.53051197700003,-7.014106]},"id":null},{"type":"Feature","properties":{"parent_code":"3208","parent_name":"Kuningan","code":"","name":"Kuningan","kind":"District"},"geometry":{"type":"Point","coordinates":[108.49344373300003,-6.980427500499967]},"id":null},{"type":"Feature","properties":{"parent_code":"3208","parent_name":"Kuningan","code":"","name":"Ciniru","kind":"District"},"geometry":{"type":"Point","coordinates":[108.50955700850005,-7.0520885]},"id":null},{"type":"Feature","properties":{"parent_code":"3208","parent_name":"Kuningan","code":"","name":"Subang","kind":"District"},"geometry":{"type":"Point","coordinates":[108.539324,-7.127018103499985]},"id":null},{"type":"Feature","properties":{"parent_code":"3208","parent_name":"Kuningan","code":"","name":"Kadugede","kind":"District"},"geometry":{"type":"Point","coordinates":[108.44709357750006,-7.0109513454999615]},"id":null},{"type":"Feature","properties":{"parent_code":"3208","parent_name":"Kuningan","code":"","name":"Luragung","kind":"District"},"geometry":{"type":"Point","coordinates":[108.63724750050002,-7.0221285]},"id":null},{"type":"Feature","properties":{"parent_code":"3208","parent_name":"Kuningan","code":"","name":"Lebakwangi","kind":"District"},"geometry":{"type":"Point","coordinates":[108.58267850250004,-7.009106497999976]},"id":null},{"type":"Feature","properties":{"parent_code":"3208","parent_name":"Kuningan","code":"","name":"Ciwaru","kind":"District"},"geometry":{"type":"Point","coordinates":[108.63425050050004,-7.086069542999951]},"id":null},{"type":"Feature","properties":{"parent_code":"3208","parent_name":"Kuningan","code":"","name":"Cibingbin","kind":"District"},"geometry":{"type":"Point","coordinates":[108.75610361450003,-7.053164125499961]},"id":null},{"type":"Feature","properties":{"parent_code":"3208","parent_name":"Kuningan","code":"","name":"Ciawigebang","kind":"District"},"geometry":{"type":"Point","coordinates":[108.59034169950007,-6.954968986499975]},"id":null},{"type":"Feature","properties":{"parent_code":"3208","parent_name":"Kuningan","code":"","name":"Pasawahan","kind":"District"},"geometry":{"type":"Point","coordinates":[108.42784328450004,-6.838309710999965]},"id":null},{"type":"Feature","properties":{"parent_code":"3208","parent_name":"Kuningan","code":"","name":"Cilimus","kind":"District"},"geometry":{"type":"Point","coordinates":[108.46121708400005,-6.870906160499942]},"id":null},{"type":"Feature","properties":{"parent_code":"3208","parent_name":"Kuningan","code":"","name":"Mandirancan","kind":"District"},"geometry":{"type":"Point","coordinates":[108.44969161100005,-6.84309930349994]},"id":null},{"type":"Feature","properties":{"parent_code":"3208","parent_name":"Kuningan","code":"","name":"Cidahu","kind":"District"},"geometry":{"type":"Point","coordinates":[108.6537835,-6.961256765999963]},"id":null},{"type":"Feature","properties":{"parent_code":"3208","parent_name":"Kuningan","code":"","name":"Jalaksana","kind":"District"},"geometry":{"type":"Point","coordinates":[108.46732094950002,-6.9177585]},"id":null},{"type":"Feature","properties":{"parent_code":"3208","parent_name":"Kuningan","code":"","name":"Darma","kind":"District"},"geometry":{"type":"Point","coordinates":[108.40760047000002,-7.012704389499959]},"id":null},{"type":"Feature","properties":{"parent_code":"3208","parent_name":"Kuningan","code":"","name":"Cigugur","kind":"District"},"geometry":{"type":"Point","coordinates":[108.43870732550005,-6.944764364499946]},"id":null},{"type":"Feature","properties":{"parent_code":"3208","parent_name":"Kuningan","code":"","name":"Selajambe","kind":"District"},"geometry":{"type":"Point","coordinates":[108.465338,-7.106063499999999]},"id":null},{"type":"Feature","properties":{"parent_code":"3208","parent_name":"Kuningan","code":"","name":"Kramatmulya","kind":"District"},"geometry":{"type":"Point","coordinates":[108.48033751600005,-6.9397205]},"id":null},{"type":"Feature","properties":{"parent_code":"3208","parent_name":"Kuningan","code":"","name":"Nusaherang","kind":"District"},"geometry":{"type":"Point","coordinates":[108.43364336150006,-7.014788216499966]},"id":null},{"type":"Feature","properties":{"parent_code":"3208","parent_name":"Kuningan","code":"","name":"Cipicung","kind":"District"},"geometry":{"type":"Point","coordinates":[108.55844099950002,-6.9424425]},"id":null},{"type":"Feature","properties":{"parent_code":"3208","parent_name":"Kuningan","code":"","name":"Cimahi","kind":"District"},"geometry":{"type":"Point","coordinates":[108.70780250050004,-6.992674959499965]},"id":null},{"type":"Feature","properties":{"parent_code":"3208","parent_name":"Kuningan","code":"","name":"Cilebak","kind":"District"},"geometry":{"type":"Point","coordinates":[108.57252600000001,-7.143076680999968]},"id":null},{"type":"Feature","properties":{"parent_code":"3208","parent_name":"Kuningan","code":"","name":"Pancalang","kind":"District"},"geometry":{"type":"Point","coordinates":[108.49206063650004,-6.823239386999973]},"id":null},{"type":"Feature","properties":{"parent_code":"3208","parent_name":"Kuningan","code":"","name":"Japara","kind":"District"},"geometry":{"type":"Point","coordinates":[108.55187300100002,-6.914146499999999]},"id":null},{"type":"Feature","properties":{"parent_code":"3208","parent_name":"Kuningan","code":"","name":"Cibeureum","kind":"District"},"geometry":{"type":"Point","coordinates":[108.7156635,-7.0855606084999465]},"id":null},{"type":"Feature","properties":{"parent_code":"3208","parent_name":"Kuningan","code":"","name":"Karang Kancana","kind":"District"},"geometry":{"type":"Point","coordinates":[108.66988649999999,-7.095036176999969]},"id":null},{"type":"Feature","properties":{"parent_code":"3208","parent_name":"Kuningan","code":"","name":"Hantara","kind":"District"},"geometry":{"type":"Point","coordinates":[108.45534692450002,-7.059489657499988]},"id":null},{"type":"Feature","properties":{"parent_code":"3208","parent_name":"Kuningan","code":"","name":"Kalimanggis","kind":"District"},"geometry":{"type":"Point","coordinates":[108.62865188100002,-6.95010417349998]},"id":null},{"type":"Feature","properties":{"parent_code":"3208","parent_name":"Kuningan","code":"","name":"Sindangagung","kind":"District"},"geometry":{"type":"Point","coordinates":[108.52954337350003,-6.967149911499989]},"id":null},{"type":"Feature","properties":{"parent_code":"3208","parent_name":"Kuningan","code":"","name":"Cigandamekar","kind":"District"},"geometry":{"type":"Point","coordinates":[108.537665,-6.883233927999973]},"id":null},{"type":"Feature","properties":{"parent_code":"3208","parent_name":"Kuningan","code":"","name":"Maleber","kind":"District"},"geometry":{"type":"Point","coordinates":[108.58006071550005,-7.054628912999988]},"id":null}]}