{"type":"FeatureCollection","features":[{"type":"Feature","properties":{"parent_code":"3213","parent_name":"Subang","code":"","name":"Kalijati","kind":"District"},"geometry":{"type":"Point","coordinates":[107.64953597650006,-6.518280453499955]},"id":null},{"type":"Feature","properties":{"parent_code":"3213","parent_name":"Subang","code":"","name":"Pabuaran","kind":"District"},"geometry":{"type":"Point","coordinates":[107.59383882850005,-6.424183995999954]},"id":null},{"type":"Feature","properties":{"parent_code":"3213","parent_name":"Subang","code":"","name":"Cisalak","kind":"District"},"geometry":{"type":"Point","coordinates":[107.73503958550006,-6.757541394999947]},"id":null},{"type":"Feature","properties":{"parent_code":"3213","parent_name":"Subang","code":"","name":"Subang","kind":"District"},"geometry":{"type":"Point","coordinates":[107.76546358100006,-6.567693529499962]},"id":null},{"type":"Feature","properties":{"parent_code":"3213","parent_name":"Subang","code":"","name":"Binong","kind":"District"},"geometry":{"type":"Point","coordinates":[107.79333493250007,-6.401496721999962]},"id":null},{"type":"Feature","properties":{"parent_code":"3213","parent_name":"Subang","code":"","name":"Ciasem","kind":"District"},"geometry":{"type":"Point","coordinates":[107.66207666000005,-6.314524392999942]},"id":null},{"type":"Feature","properties":{"parent_code":"3213","parent_name":"Subang","code":"","name":"Purwadadi","kind":"District"},"geometry":{"type":"Point","coordinates":[107.68176965350006,-6.439508856999987]},"id":null},{"type":"Feature","properties":{"parent_code":"3213","parent_name":"Subang","code":"","name":"Pagaden","kind":"District"},"geometry":{"type":"Point","coordinates":[107.79158750700006,-6.476154414999968]},"id":null},{"type":"Feature","properties":{"parent_code":"3213","parent_name":"Subang","code":"","name":"Sagalaherang","kind":"District"},"geometry":{"type":"Point","coordinates":[107.65151152000007,-6.6857388494999554]},"id":null},{"type":"Feature","properties":{"parent_code":"3213","parent_name":"Subang","code":"","name":"Compreng","kind":"District"},"geometry":{"type":"Point","coordinates":[107.87118627450008,-6.39232024949996]},"id":null},{"type":"Feature","properties":{"parent_code":"3213","parent_name":"Subang","code":"","name":"Patokbeusi","kind":"District"},"geometry":{"type":"Point","coordinates":[107.62528776900007,-6.3683504209999455]},"id":null},{"type":"Feature","properties":{"parent_code":"3213","parent_name":"Subang","code":"","name":"Blanakan","kind":"District"},"geometry":{"type":"Point","coordinates":[107.66060713300004,-6.2587682399999665]},"id":null},{"type":"Feature","properties":{"parent_code":"3213","parent_name":"Subang","code":"","name":"Tanjungsiang","kind":"District"},"geometry":{"type":"Point","coordinates":[107.80941710550007,-6.748882131499954]},"id":null},{"type":"Feature","properties":{"parent_code":"3213","parent_name":"Subang","code":"","name":"Cijambe","kind":"District"},"geometry":{"type":"Point","coordinates":[107.77156673800005,-6.630610895999951]},"id":null},{"type":"Feature","properties":{"parent_code":"3213","parent_name":"Subang","code":"","name":"Cibogo","kind":"District"},"geometry":{"type":"Point","coordinates":[107.83722851450005,-6.59301547949994]},"id":null},{"type":"Feature","properties":{"parent_code":"3213","parent_name":"Subang","code":"","name":"Cipunagara","kind":"District"},"geometry":{"type":"Point","coordinates":[107.86445331550007,-6.47943709599997]},"id":null},{"type":"Feature","properties":{"parent_code":"3213","parent_name":"Subang","code":"","name":"Pamanukan","kind":"District"},"geometry":{"type":"Point","coordinates":[107.81594778200008,-6.290801784499962]},"id":null},{"type":"Feature","properties":{"parent_code":"3213","parent_name":"Subang","code":"","name":"Jalancagak","kind":"District"},"geometry":{"type":"Point","coordinates":[107.70358640000006,-6.672292806999973]},"id":null},{"type":"Feature","properties":{"parent_code":"3213","parent_name":"Subang","code":"","name":"Pusakanagara","kind":"District"},"geometry":{"type":"Point","coordinates":[107.87656497900005,-6.241515391499945]},"id":null},{"type":"Feature","properties":{"parent_code":"3213","parent_name":"Subang","code":"","name":"Kasomalang","kind":"District"},"geometry":{"type":"Point","coordinates":[107.76643495950006,-6.708017030499974]},"id":null},{"type":"Feature","properties":{"parent_code":"3213","parent_name":"Subang","code":"","name":"Dawuan","kind":"District"},"geometry":{"type":"Point","coordinates":[107.67751689650007,-6.563328829999932]},"id":null},{"type":"Feature","properties":{"parent_code":"3213","parent_name":"Subang","code":"","name":"Sukasari","kind":"District"},"geometry":{"type":"Point","coordinates":[107.75787345150005,-6.277173381999972]},"id":null},{"type":"Feature","properties":{"parent_code":"3213","parent_name":"Subang","code":"","name":"Tambakdahan","kind":"District"},"geometry":{"type":"Point","coordinates":[107.80667723650006,-6.344360247499964]},"id":null},{"type":"Feature","properties":{"parent_code":"3213","parent_name":"Subang","code":"","name":"Pagaden Barat","kind":"District"},"geometry":{"type":"Point","coordinates":[107.77025439800008,-6.484564982499961]},"id":null},{"type":"Feature","properties":{"parent_code":"3213","parent_name":"Subang","code":"","name":"Ciater","kind":"District"},"geometry":{"type":"Point","coordinates":[107.67212237100006,-6.732088566999948]},"id":null},{"type":"Feature","properties":{"parent_code":"3213","parent_name":"Subang","code":"","name":"Cikaum","kind":"District"},"geometry":{"type":"Point","coordinates":[107.73399934300008,-6.430263941499959]},"id":null},{"type":"Feature","properties":{"parent_code":"3213","parent_name":"Subang","code":"","name":"Serangpanjang","kind":"District"},"geometry":{"type":"Point","coordinates":[107.60950590700006,-6.652892233499955]},"id":null},{"type":"Feature","properties":{"parent_code":"3213","parent_name":"Subang","code":"","name":"Cipeundeuy","kind":"District"},"geometry":{"type":"Point","coordinates":[107.59471264300004,-6.503231809499965]},"id":null},{"type":"Feature","properties":{"parent_code":"3213","parent_name":"Subang","code":"","name":"Legonkulon","kind":"District"},"geometry":{"type":"Point","coordinates":[107.80189238900005,-6.229286999499948]},"id":null},{"type":"Feature","properties":{"parent_code":"3213","parent_name":"Subang","code":"","name":"Pusakajaya","kind":"District"},"geometry":{"type":"Point","coordinates":[107.88317201900006,-6.303246421499949]},"id":null}]}