{"type":"FeatureCollection","features":[{"type":"Feature","properties":{"parent_code":"7303","parent_name":"Bantaeng","code":"","name":"Sinoa","kind":"District"},"geometry":{"type":"Point","coordinates":[119.92407070400003,-5.490040956499968]},"id":null},{"type":"Feature","properties":{"parent_code":"7303","parent_name":"Bantaeng","code":"","name":"Uluere","kind":"District"},"geometry":{"type":"Point","coordinates":[119.92058209450005,-5.440730798499942]},"id":null},{"type":"Feature","properties":{"parent_code":"7303","parent_name":"Bantaeng","code":"","name":"Gantarang Keke","kind":"District"},"geometry":{"type":"Point","coordinates":[120.05308049800004,-5.521656301999968]},"id":null},{"type":"Feature","properties":{"parent_code":"7303","parent_name":"Bantaeng","code":"","name":"Bissappu","kind":"District"},"geometry":{"type":"Point","coordinates":[119.90662665800005,-5.545827129999964]},"id":null},{"type":"Feature","properties":{"parent_code":"7303","parent_name":"Bantaeng","code":"","name":"Tompo Bulu","kind":"District"},"geometry":{"type":"Point","coordinates":[120.02440851250009,-5.4419114189999505]},"id":null},{"type":"Feature","properties":{"parent_code":"7303","parent_name":"Bantaeng","code":"","name":"Pajukukang","kind":"District"},"geometry":{"type":"Point","coordinates":[120.04339393950005,-5.545884302499957]},"id":null},{"type":"Feature","properties":{"parent_code":"7303","parent_name":"Bantaeng","code":"","name":"Bantaeng","kind":"District"},"geometry":{"type":"Point","coordinates":[119.96626292550008,-5.501701057499957]},"id":null},{"type":"Feature","properties":{"parent_code":"7303","parent_name":"Bantaeng","code":"","name":"Eremerasa","kind":"District"},"geometry":{"type":"Point","coordinates":[119.99226355400009,-5.471135948999944]},"id":null}]}