{"type":"FeatureCollection","features":[{"type":"Feature","properties":{"parent_code":"7305","parent_name":"Takalar","code":"","name":"Sanrobone","kind":"District"},"geometry":{"type":"Point","coordinates":[119.39106527150005,-5.431204988499957]},"id":null},{"type":"Feature","properties":{"parent_code":"7305","parent_name":"Takalar","code":"","name":"Galesong","kind":"District"},"geometry":{"type":"Point","coordinates":[119.37238539050009,-5.326741231499938]},"id":null},{"type":"Feature","properties":{"parent_code":"7305","parent_name":"Takalar","code":"","name":"Mangarabombang","kind":"District"},"geometry":{"type":"Point","coordinates":[119.46193182050007,-5.536878890999958]},"id":null},{"type":"Feature","properties":{"parent_code":"7305","parent_name":"Takalar","code":"","name":"Polombangkeng Selatan","kind":"District"},"geometry":{"type":"Point","coordinates":[119.49886028800012,-5.440156726499964]},"id":null},{"type":"Feature","properties":{"parent_code":"7305","parent_name":"Takalar","code":"","name":"Mappakasunggu","kind":"District"},"geometry":{"type":"Point","coordinates":[119.40726320700009,-5.463755383999938]},"id":null},{"type":"Feature","properties":{"parent_code":"7305","parent_name":"Takalar","code":"","name":"Galesong Utara","kind":"District"},"geometry":{"type":"Point","coordinates":[119.40566241050004,-5.255864702499963]},"id":null},{"type":"Feature","properties":{"parent_code":"7305","parent_name":"Takalar","code":"","name":"Pattallassang","kind":"District"},"geometry":{"type":"Point","coordinates":[119.44347762750004,-5.431771458999947]},"id":null},{"type":"Feature","properties":{"parent_code":"7305","parent_name":"Takalar","code":"","name":"Polombangkeng Utara","kind":"District"},"geometry":{"type":"Point","coordinates":[119.54287328650008,-5.3687839564999535]},"id":null},{"type":"Feature","properties":{"parent_code":"7305","parent_name":"Takalar","code":"","name":"Galesong Selatan","kind":"District"},"geometry":{"type":"Point","coordinates":[119.3815523405001,-5.37902118599996]},"id":null},{"type":"Feature","properties":{"parent_code":"7305","parent_name":"Takalar","code":"","name":"Kepulauan Tanakeke","kind":"District"},"geometry":{"type":"Point","coordinates":[119.25503854700003,-5.463644020999965]},"id":null}]}