{"type":"FeatureCollection","features":[{"type":"Feature","properties":{"parent_code":"7309","parent_name":"Maros","code":"","name":"Camba","kind":"District"},"geometry":{"type":"Point","coordinates":[119.83925115750003,-4.91868770399995]},"id":null},{"type":"Feature","properties":{"parent_code":"7309","parent_name":"Maros","code":"","name":"Bantimurung","kind":"District"},"geometry":{"type":"Point","coordinates":[119.67519489350008,-4.977250372999947]},"id":null},{"type":"Feature","properties":{"parent_code":"7309","parent_name":"Maros","code":"","name":"Mandai","kind":"District"},"geometry":{"type":"Point","coordinates":[119.56146053550009,-5.0845962594999605]},"id":null},{"type":"Feature","properties":{"parent_code":"7309","parent_name":"Maros","code":"","name":"Malllawa","kind":"District"},"geometry":{"type":"Point","coordinates":[119.88936160500009,-4.816044385499964]},"id":null},{"type":"Feature","properties":{"parent_code":"7309","parent_name":"Maros","code":"","name":"Tanralili","kind":"District"},"geometry":{"type":"Point","coordinates":[119.62537339250008,-5.10232183049996]},"id":null},{"type":"Feature","properties":{"parent_code":"7309","parent_name":"Maros","code":"","name":"Maros Baru","kind":"District"},"geometry":{"type":"Point","coordinates":[119.53132924150003,-4.993952029499951]},"id":null},{"type":"Feature","properties":{"parent_code":"7309","parent_name":"Maros","code":"","name":"Bontoa","kind":"District"},"geometry":{"type":"Point","coordinates":[119.57713090700003,-4.9167807249999385]},"id":null},{"type":"Feature","properties":{"parent_code":"7309","parent_name":"Maros","code":"","name":"Marusu","kind":"District"},"geometry":{"type":"Point","coordinates":[119.50550316700009,-5.0262179779999485]},"id":null},{"type":"Feature","properties":{"parent_code":"7309","parent_name":"Maros","code":"","name":"Simbang","kind":"District"},"geometry":{"type":"Point","coordinates":[119.67949409150003,-5.04884060699996]},"id":null},{"type":"Feature","properties":{"parent_code":"7309","parent_name":"Maros","code":"","name":"Cenrana","kind":"District"},"geometry":{"type":"Point","coordinates":[119.80760235450003,-5.0287165459999414]},"id":null},{"type":"Feature","properties":{"parent_code":"7309","parent_name":"Maros","code":"","name":"Moncong Loe","kind":"District"},"geometry":{"type":"Point","coordinates":[119.54507423400008,-5.141554442999961]},"id":null},{"type":"Feature","properties":{"parent_code":"7309","parent_name":"Maros","code":"","name":"Turikale","kind":"District"},"geometry":{"type":"Point","coordinates":[119.57346650050005,-5.0097161529999426]},"id":null},{"type":"Feature","properties":{"parent_code":"7309","parent_name":"Maros","code":"","name":"Tompobulu","kind":"District"},"geometry":{"type":"Point","coordinates":[119.74349278150004,-5.135644451499957]},"id":null},{"type":"Feature","properties":{"parent_code":"7309","parent_name":"Maros","code":"","name":"Lau","kind":"District"},"geometry":{"type":"Point","coordinates":[119.55688814650006,-4.9632959629999505]},"id":null}]}