{"type":"FeatureCollection","features":[{"type":"Feature","properties":{"parent_code":"3302","parent_name":"Banyumas","code":"","name":"Jatilawang","kind":"District"},"geometry":{"type":"Point","coordinates":[109.10804733250006,-7.5418679344999475]},"id":null},{"type":"Feature","properties":{"parent_code":"3302","parent_name":"Banyumas","code":"","name":"Rawalo","kind":"District"},"geometry":{"type":"Point","coordinates":[109.16842619050001,-7.5303412904999885]},"id":null},{"type":"Feature","properties":{"parent_code":"3302","parent_name":"Banyumas","code":"","name":"Lumbir","kind":"District"},"geometry":{"type":"Point","coordinates":[108.96683498950006,-7.458608118999933]},"id":null},{"type":"Feature","properties":{"parent_code":"3302","parent_name":"Banyumas","code":"","name":"Wangon","kind":"District"},"geometry":{"type":"Point","coordinates":[109.04690820500005,-7.511659856999955]},"id":null},{"type":"Feature","properties":{"parent_code":"3302","parent_name":"Banyumas","code":"","name":"Sumpiuh","kind":"District"},"geometry":{"type":"Point","coordinates":[109.36629799950003,-7.602006464499976]},"id":null},{"type":"Feature","properties":{"parent_code":"3302","parent_name":"Banyumas","code":"","name":"Tambak","kind":"District"},"geometry":{"type":"Point","coordinates":[109.41203849550001,-7.592563578999943]},"id":null},{"type":"Feature","properties":{"parent_code":"3302","parent_name":"Banyumas","code":"","name":"Kebasen","kind":"District"},"geometry":{"type":"Point","coordinates":[109.22259800050003,-7.541482314999984]},"id":null},{"type":"Feature","properties":{"parent_code":"3302","parent_name":"Banyumas","code":"","name":"Kemranjen","kind":"District"},"geometry":{"type":"Point","coordinates":[109.30953280000006,-7.592022940499959]},"id":null},{"type":"Feature","properties":{"parent_code":"3302","parent_name":"Banyumas","code":"","name":"Somagede","kind":"District"},"geometry":{"type":"Point","coordinates":[109.34925049950002,-7.517775500499977]},"id":null},{"type":"Feature","properties":{"parent_code":"3302","parent_name":"Banyumas","code":"","name":"Ajibarang","kind":"District"},"geometry":{"type":"Point","coordinates":[109.06777939850008,-7.424134609999953]},"id":null},{"type":"Feature","properties":{"parent_code":"3302","parent_name":"Banyumas","code":"","name":"Gumelar","kind":"District"},"geometry":{"type":"Point","coordinates":[108.99387485850008,-7.396650804999973]},"id":null},{"type":"Feature","properties":{"parent_code":"3302","parent_name":"Banyumas","code":"","name":"Patikraja","kind":"District"},"geometry":{"type":"Point","coordinates":[109.21477786300005,-7.470787512499973]},"id":null},{"type":"Feature","properties":{"parent_code":"3302","parent_name":"Banyumas","code":"","name":"Purwojati","kind":"District"},"geometry":{"type":"Point","coordinates":[109.11325859600007,-7.489158049999958]},"id":null},{"type":"Feature","properties":{"parent_code":"3302","parent_name":"Banyumas","code":"","name":"Karanglewas","kind":"District"},"geometry":{"type":"Point","coordinates":[109.18787068150007,-7.389334594999951]},"id":null},{"type":"Feature","properties":{"parent_code":"3302","parent_name":"Banyumas","code":"","name":"Sokaraja","kind":"District"},"geometry":{"type":"Point","coordinates":[109.29129903400002,-7.451841441499937]},"id":null},{"type":"Feature","properties":{"parent_code":"3302","parent_name":"Banyumas","code":"","name":"Pekuncen","kind":"District"},"geometry":{"type":"Point","coordinates":[109.07539930400006,-7.349892573499975]},"id":null},{"type":"Feature","properties":{"parent_code":"3302","parent_name":"Banyumas","code":"","name":"Cilongok","kind":"District"},"geometry":{"type":"Point","coordinates":[109.14755031600006,-7.372762525999946]},"id":null},{"type":"Feature","properties":{"parent_code":"3302","parent_name":"Banyumas","code":"","name":"Kalibagor","kind":"District"},"geometry":{"type":"Point","coordinates":[109.3011545,-7.486676156999948]},"id":null},{"type":"Feature","properties":{"parent_code":"3302","parent_name":"Banyumas","code":"","name":"Banyumas","kind":"District"},"geometry":{"type":"Point","coordinates":[109.27200352200003,-7.52912772749999]},"id":null},{"type":"Feature","properties":{"parent_code":"3302","parent_name":"Banyumas","code":"","name":"Purwokerto Barat","kind":"District"},"geometry":{"type":"Point","coordinates":[109.21455793100003,-7.4226915884999585]},"id":null},{"type":"Feature","properties":{"parent_code":"3302","parent_name":"Banyumas","code":"","name":"Purwokerto Timur","kind":"District"},"geometry":{"type":"Point","coordinates":[109.25080554750002,-7.422132123999944]},"id":null},{"type":"Feature","properties":{"parent_code":"3302","parent_name":"Banyumas","code":"","name":"Kedungbanteng","kind":"District"},"geometry":{"type":"Point","coordinates":[109.20247943700002,-7.331361884499955]},"id":null},{"type":"Feature","properties":{"parent_code":"3302","parent_name":"Banyumas","code":"","name":"Purwokerto Selatan","kind":"District"},"geometry":{"type":"Point","coordinates":[109.24356182500006,-7.453415]},"id":null},{"type":"Feature","properties":{"parent_code":"3302","parent_name":"Banyumas","code":"","name":"Purwokerto Utara","kind":"District"},"geometry":{"type":"Point","coordinates":[109.23890195550007,-7.400077500499979]},"id":null},{"type":"Feature","properties":{"parent_code":"3302","parent_name":"Banyumas","code":"","name":"Sumbang","kind":"District"},"geometry":{"type":"Point","coordinates":[109.26235239050003,-7.322239596999968]},"id":null},{"type":"Feature","properties":{"parent_code":"3302","parent_name":"Banyumas","code":"","name":"Baturraden","kind":"District"},"geometry":{"type":"Point","coordinates":[109.22050656600004,-7.322662104999949]},"id":null},{"type":"Feature","properties":{"parent_code":"3302","parent_name":"Banyumas","code":"","name":"Kembaran","kind":"District"},"geometry":{"type":"Point","coordinates":[109.28779714400005,-7.413969005999974]},"id":null}]}