{"type":"FeatureCollection","features":[{"type":"Feature","properties":{"parent_code":"3304","parent_name":"Banjarnegara","code":"","name":"Bawang","kind":"District"},"geometry":{"type":"Point","coordinates":[109.63080105350004,-7.4416344119999565]},"id":null},{"type":"Feature","properties":{"parent_code":"3304","parent_name":"Banjarnegara","code":"","name":"Banjarnegara","kind":"District"},"geometry":{"type":"Point","coordinates":[109.70960087650008,-7.4125544129999525]},"id":null},{"type":"Feature","properties":{"parent_code":"3304","parent_name":"Banjarnegara","code":"","name":"Mandiraja","kind":"District"},"geometry":{"type":"Point","coordinates":[109.49905910000004,-7.48019498599993]},"id":null},{"type":"Feature","properties":{"parent_code":"3304","parent_name":"Banjarnegara","code":"","name":"Purwanegara","kind":"District"},"geometry":{"type":"Point","coordinates":[109.56748241800005,-7.464379530999963]},"id":null},{"type":"Feature","properties":{"parent_code":"3304","parent_name":"Banjarnegara","code":"","name":"Banjarmangu","kind":"District"},"geometry":{"type":"Point","coordinates":[109.68467864500008,-7.339033128999944]},"id":null},{"type":"Feature","properties":{"parent_code":"3304","parent_name":"Banjarnegara","code":"","name":"Sigaluh","kind":"District"},"geometry":{"type":"Point","coordinates":[109.77943202600005,-7.416965470999941]},"id":null},{"type":"Feature","properties":{"parent_code":"3304","parent_name":"Banjarnegara","code":"","name":"Madukara","kind":"District"},"geometry":{"type":"Point","coordinates":[109.72887453950008,-7.3566600309999615]},"id":null},{"type":"Feature","properties":{"parent_code":"3304","parent_name":"Banjarnegara","code":"","name":"Susukan","kind":"District"},"geometry":{"type":"Point","coordinates":[109.40600386600008,-7.504043899499976]},"id":null},{"type":"Feature","properties":{"parent_code":"3304","parent_name":"Banjarnegara","code":"","name":"Purworeja Klampok","kind":"District"},"geometry":{"type":"Point","coordinates":[109.44621832250004,-7.485497615499952]},"id":null},{"type":"Feature","properties":{"parent_code":"3304","parent_name":"Banjarnegara","code":"","name":"Batur","kind":"District"},"geometry":{"type":"Point","coordinates":[109.85426032700005,-7.208672050499956]},"id":null},{"type":"Feature","properties":{"parent_code":"3304","parent_name":"Banjarnegara","code":"","name":"Wanayasa","kind":"District"},"geometry":{"type":"Point","coordinates":[109.76148561700006,-7.247842345499977]},"id":null},{"type":"Feature","properties":{"parent_code":"3304","parent_name":"Banjarnegara","code":"","name":"Pagentan","kind":"District"},"geometry":{"type":"Point","coordinates":[109.78990340700005,-7.305501454499932]},"id":null},{"type":"Feature","properties":{"parent_code":"3304","parent_name":"Banjarnegara","code":"","name":"Pejawaran","kind":"District"},"geometry":{"type":"Point","coordinates":[109.81952945100002,-7.237875526999943]},"id":null},{"type":"Feature","properties":{"parent_code":"3304","parent_name":"Banjarnegara","code":"","name":"Kalibening","kind":"District"},"geometry":{"type":"Point","coordinates":[109.66160370350003,-7.238245113499943]},"id":null},{"type":"Feature","properties":{"parent_code":"3304","parent_name":"Banjarnegara","code":"","name":"Pandanarum","kind":"District"},"geometry":{"type":"Point","coordinates":[109.58392274000008,-7.253359677499979]},"id":null},{"type":"Feature","properties":{"parent_code":"3304","parent_name":"Banjarnegara","code":"","name":"Punggelan","kind":"District"},"geometry":{"type":"Point","coordinates":[109.58773930200003,-7.329557699499929]},"id":null},{"type":"Feature","properties":{"parent_code":"3304","parent_name":"Banjarnegara","code":"","name":"Karangkobar","kind":"District"},"geometry":{"type":"Point","coordinates":[109.70785873600005,-7.2846443754999655]},"id":null},{"type":"Feature","properties":{"parent_code":"3304","parent_name":"Banjarnegara","code":"","name":"Wanadadi","kind":"District"},"geometry":{"type":"Point","coordinates":[109.63097520850002,-7.36483832399999]},"id":null},{"type":"Feature","properties":{"parent_code":"3304","parent_name":"Banjarnegara","code":"","name":"Rakit","kind":"District"},"geometry":{"type":"Point","coordinates":[109.54864911250004,-7.4183935000000005]},"id":null},{"type":"Feature","properties":{"parent_code":"3304","parent_name":"Banjarnegara","code":"","name":"Pagedongan","kind":"District"},"geometry":{"type":"Point","coordinates":[109.69020961100004,-7.457207315999966]},"id":null}]}