{"type":"FeatureCollection","features":[{"type":"Feature","properties":{"parent_code":"3313","parent_name":"Karanganyar","code":"","name":"Karanganyar","kind":"District"},"geometry":{"type":"Point","coordinates":[110.97583060900007,-7.600147917499953]},"id":null},{"type":"Feature","properties":{"parent_code":"3313","parent_name":"Karanganyar","code":"","name":"Kebakkramat","kind":"District"},"geometry":{"type":"Point","coordinates":[110.92069902750004,-7.521819175999951]},"id":null},{"type":"Feature","properties":{"parent_code":"3313","parent_name":"Karanganyar","code":"","name":"Mojogedang","kind":"District"},"geometry":{"type":"Point","coordinates":[111.00177154150006,-7.552505341499938]},"id":null},{"type":"Feature","properties":{"parent_code":"3313","parent_name":"Karanganyar","code":"","name":"Colomadu","kind":"District"},"geometry":{"type":"Point","coordinates":[110.75458835450007,-7.536552514999954]},"id":null},{"type":"Feature","properties":{"parent_code":"3313","parent_name":"Karanganyar","code":"","name":"Gondangrejo","kind":"District"},"geometry":{"type":"Point","coordinates":[110.85162998500005,-7.502962293499962]},"id":null},{"type":"Feature","properties":{"parent_code":"3313","parent_name":"Karanganyar","code":"","name":"Kerjo","kind":"District"},"geometry":{"type":"Point","coordinates":[111.06311019950003,-7.541892390999948]},"id":null},{"type":"Feature","properties":{"parent_code":"3313","parent_name":"Karanganyar","code":"","name":"Jenawi","kind":"District"},"geometry":{"type":"Point","coordinates":[111.13991044300005,-7.565694276499954]},"id":null},{"type":"Feature","properties":{"parent_code":"3313","parent_name":"Karanganyar","code":"","name":"Tasikmadu","kind":"District"},"geometry":{"type":"Point","coordinates":[110.94033098150007,-7.567290222499935]},"id":null},{"type":"Feature","properties":{"parent_code":"3313","parent_name":"Karanganyar","code":"","name":"Jaten","kind":"District"},"geometry":{"type":"Point","coordinates":[110.89698059950007,-7.567433505999958]},"id":null},{"type":"Feature","properties":{"parent_code":"3313","parent_name":"Karanganyar","code":"","name":"Jumapolo","kind":"District"},"geometry":{"type":"Point","coordinates":[111.00668315200008,-7.709096123999956]},"id":null},{"type":"Feature","properties":{"parent_code":"3313","parent_name":"Karanganyar","code":"","name":"Jumantono","kind":"District"},"geometry":{"type":"Point","coordinates":[111.00332547550005,-7.654728533499963]},"id":null},{"type":"Feature","properties":{"parent_code":"3313","parent_name":"Karanganyar","code":"","name":"Jatipuro","kind":"District"},"geometry":{"type":"Point","coordinates":[111.01301014250004,-7.749919662999957]},"id":null},{"type":"Feature","properties":{"parent_code":"3313","parent_name":"Karanganyar","code":"","name":"Jatiyoso","kind":"District"},"geometry":{"type":"Point","coordinates":[111.11706499350007,-7.713822215499931]},"id":null},{"type":"Feature","properties":{"parent_code":"3313","parent_name":"Karanganyar","code":"","name":"Ngargoyoso","kind":"District"},"geometry":{"type":"Point","coordinates":[111.12708544350008,-7.6060479999999995]},"id":null},{"type":"Feature","properties":{"parent_code":"3313","parent_name":"Karanganyar","code":"","name":"Karangpandan","kind":"District"},"geometry":{"type":"Point","coordinates":[111.06724737100006,-7.612174065999966]},"id":null},{"type":"Feature","properties":{"parent_code":"3313","parent_name":"Karanganyar","code":"","name":"Matesih","kind":"District"},"geometry":{"type":"Point","coordinates":[111.03747485800005,-7.646035724999962]},"id":null},{"type":"Feature","properties":{"parent_code":"3313","parent_name":"Karanganyar","code":"","name":"Tawangmangu","kind":"District"},"geometry":{"type":"Point","coordinates":[111.13383264400008,-7.66079254349998]},"id":null}]}