{"type":"FeatureCollection","features":[{"type":"Feature","properties":{"parent_code":"3321","parent_name":"Demak","code":"","name":"Mranggen","kind":"District"},"geometry":{"type":"Point","coordinates":[110.52341602800007,-7.049743413999948]},"id":null},{"type":"Feature","properties":{"parent_code":"3321","parent_name":"Demak","code":"","name":"Sayung","kind":"District"},"geometry":{"type":"Point","coordinates":[110.52202575850006,-6.922986831499941]},"id":null},{"type":"Feature","properties":{"parent_code":"3321","parent_name":"Demak","code":"","name":"Karangtengah","kind":"District"},"geometry":{"type":"Point","coordinates":[110.57888534750006,-6.901859821999949]},"id":null},{"type":"Feature","properties":{"parent_code":"3321","parent_name":"Demak","code":"","name":"Karangawen","kind":"District"},"geometry":{"type":"Point","coordinates":[110.56488733400005,-7.077197105499948]},"id":null},{"type":"Feature","properties":{"parent_code":"3321","parent_name":"Demak","code":"","name":"Guntur","kind":"District"},"geometry":{"type":"Point","coordinates":[110.61187049000006,-6.977651907499961]},"id":null},{"type":"Feature","properties":{"parent_code":"3321","parent_name":"Demak","code":"","name":"Gajah","kind":"District"},"geometry":{"type":"Point","coordinates":[110.74801005250006,-6.902966201499964]},"id":null},{"type":"Feature","properties":{"parent_code":"3321","parent_name":"Demak","code":"","name":"Karanganyar","kind":"District"},"geometry":{"type":"Point","coordinates":[110.77414667500005,-6.845039161499955]},"id":null},{"type":"Feature","properties":{"parent_code":"3321","parent_name":"Demak","code":"","name":"Wonosalam","kind":"District"},"geometry":{"type":"Point","coordinates":[110.65703717750006,-6.921926486999951]},"id":null},{"type":"Feature","properties":{"parent_code":"3321","parent_name":"Demak","code":"","name":"Dempet","kind":"District"},"geometry":{"type":"Point","coordinates":[110.73366378800006,-6.9662134294999305]},"id":null},{"type":"Feature","properties":{"parent_code":"3321","parent_name":"Demak","code":"","name":"Demak","kind":"District"},"geometry":{"type":"Point","coordinates":[110.65699053000006,-6.870974267499946]},"id":null},{"type":"Feature","properties":{"parent_code":"3321","parent_name":"Demak","code":"","name":"Bonang","kind":"District"},"geometry":{"type":"Point","coordinates":[110.59312173850009,-6.853233048499959]},"id":null},{"type":"Feature","properties":{"parent_code":"3321","parent_name":"Demak","code":"","name":"Mijen","kind":"District"},"geometry":{"type":"Point","coordinates":[110.70731426200007,-6.814271335999962]},"id":null},{"type":"Feature","properties":{"parent_code":"3321","parent_name":"Demak","code":"","name":"Wedung","kind":"District"},"geometry":{"type":"Point","coordinates":[110.60660250550006,-6.771797907499973]},"id":null},{"type":"Feature","properties":{"parent_code":"3321","parent_name":"Demak","code":"","name":"Kebonagung","kind":"District"},"geometry":{"type":"Point","coordinates":[110.71535917150004,-7.009460775999969]},"id":null}]}