{"type":"FeatureCollection","features":[{"type":"Feature","properties":{"parent_code":"7501","parent_name":"Gorontalo","code":"","name":"Tibawa","kind":"District"},"geometry":{"type":"Point","coordinates":[122.82902206600005,0.686443691000022]},"id":null},{"type":"Feature","properties":{"parent_code":"7501","parent_name":"Gorontalo","code":"","name":"Batudaa Pantai","kind":"District"},"geometry":{"type":"Point","coordinates":[122.95565613850005,0.506982303000058]},"id":null},{"type":"Feature","properties":{"parent_code":"7501","parent_name":"Gorontalo","code":"","name":"Telaga","kind":"District"},"geometry":{"type":"Point","coordinates":[123.04408281150006,0.6474910985000405]},"id":null},{"type":"Feature","properties":{"parent_code":"7501","parent_name":"Gorontalo","code":"","name":"Batudaa","kind":"District"},"geometry":{"type":"Point","coordinates":[122.96031236850007,0.5474850010000409]},"id":null},{"type":"Feature","properties":{"parent_code":"7501","parent_name":"Gorontalo","code":"","name":"Boliyohuto","kind":"District"},"geometry":{"type":"Point","coordinates":[122.60606642650004,0.660424062000061]},"id":null},{"type":"Feature","properties":{"parent_code":"7501","parent_name":"Gorontalo","code":"","name":"Limboto","kind":"District"},"geometry":{"type":"Point","coordinates":[122.97886659850008,0.6542597590000415]},"id":null},{"type":"Feature","properties":{"parent_code":"7501","parent_name":"Gorontalo","code":"","name":"Pulubala","kind":"District"},"geometry":{"type":"Point","coordinates":[122.75090039550008,0.6883406040000466]},"id":null},{"type":"Feature","properties":{"parent_code":"7501","parent_name":"Gorontalo","code":"","name":"Tolangohula","kind":"District"},"geometry":{"type":"Point","coordinates":[122.54858479650005,0.7768605755000235]},"id":null},{"type":"Feature","properties":{"parent_code":"7501","parent_name":"Gorontalo","code":"","name":"Mootilango","kind":"District"},"geometry":{"type":"Point","coordinates":[122.65637726600005,0.7413661800000565]},"id":null},{"type":"Feature","properties":{"parent_code":"7501","parent_name":"Gorontalo","code":"","name":"Tabongo","kind":"District"},"geometry":{"type":"Point","coordinates":[122.94042948400005,0.5746991590000334]},"id":null},{"type":"Feature","properties":{"parent_code":"7501","parent_name":"Gorontalo","code":"","name":"Limboto Barat","kind":"District"},"geometry":{"type":"Point","coordinates":[122.9292405655001,0.6620699765000495]},"id":null},{"type":"Feature","properties":{"parent_code":"7501","parent_name":"Gorontalo","code":"","name":"Tilango","kind":"District"},"geometry":{"type":"Point","coordinates":[123.01386555500005,0.561450690500038]},"id":null},{"type":"Feature","properties":{"parent_code":"7501","parent_name":"Gorontalo","code":"","name":"Bongomeme","kind":"District"},"geometry":{"type":"Point","coordinates":[122.7904562055001,0.5682081990000545]},"id":null},{"type":"Feature","properties":{"parent_code":"7501","parent_name":"Gorontalo","code":"","name":"Telaga Biru","kind":"District"},"geometry":{"type":"Point","coordinates":[123.02785059800003,0.696898347000058]},"id":null},{"type":"Feature","properties":{"parent_code":"7501","parent_name":"Gorontalo","code":"","name":"Dungaliyo","kind":"District"},"geometry":{"type":"Point","coordinates":[122.88082417750007,0.5689333145000715]},"id":null},{"type":"Feature","properties":{"parent_code":"7501","parent_name":"Gorontalo","code":"","name":"Talaga Jaya","kind":"District"},"geometry":{"type":"Point","coordinates":[123.01282939450005,0.5821591115000335]},"id":null},{"type":"Feature","properties":{"parent_code":"7501","parent_name":"Gorontalo","code":"","name":"Bilato","kind":"District"},"geometry":{"type":"Point","coordinates":[122.67357519800004,0.5723857775000449]},"id":null},{"type":"Feature","properties":{"parent_code":"7501","parent_name":"Gorontalo","code":"","name":"Biluhu","kind":"District"},"geometry":{"type":"Point","coordinates":[122.7827177955001,0.5078693270000655]},"id":null},{"type":"Feature","properties":{"parent_code":"7501","parent_name":"Gorontalo","code":"","name":"Asparaga","kind":"District"},"geometry":{"type":"Point","coordinates":[122.38571131150002,0.831704888000047]},"id":null}]}