{"type":"FeatureCollection","features":[{"type":"Feature","properties":{"parent_code":"7503","parent_name":"Bone Bolango","code":"","name":"Bulawa","kind":"District"},"geometry":{"type":"Point","coordinates":[123.29015622350005,0.37399750300005496]},"id":null},{"type":"Feature","properties":{"parent_code":"7503","parent_name":"Bone Bolango","code":"","name":"Pinogu","kind":"District"},"geometry":{"type":"Point","coordinates":[123.43515436900009,0.5283674495000525]},"id":null},{"type":"Feature","properties":{"parent_code":"7503","parent_name":"Bone Bolango","code":"","name":"Bulango Selatan","kind":"District"},"geometry":{"type":"Point","coordinates":[123.08143239000009,0.5918185440000234]},"id":null},{"type":"Feature","properties":{"parent_code":"7503","parent_name":"Bone Bolango","code":"","name":"Bulango Timur","kind":"District"},"geometry":{"type":"Point","coordinates":[123.10861894600004,0.6065601335000185]},"id":null},{"type":"Feature","properties":{"parent_code":"7503","parent_name":"Bone Bolango","code":"","name":"Bone Raya","kind":"District"},"geometry":{"type":"Point","coordinates":[123.34904846650005,0.36200569600003696]},"id":null},{"type":"Feature","properties":{"parent_code":"7503","parent_name":"Bone Bolango","code":"","name":"Suwawa Tengah","kind":"District"},"geometry":{"type":"Point","coordinates":[123.18828995900003,0.550554967500062]},"id":null},{"type":"Feature","properties":{"parent_code":"7503","parent_name":"Bone Bolango","code":"","name":"Bulango Ulu","kind":"District"},"geometry":{"type":"Point","coordinates":[123.19940715750005,0.6764067135000289]},"id":null},{"type":"Feature","properties":{"parent_code":"7503","parent_name":"Bone Bolango","code":"","name":"Suwawa Timur","kind":"District"},"geometry":{"type":"Point","coordinates":[123.28448983000004,0.555538539500031]},"id":null},{"type":"Feature","properties":{"parent_code":"7503","parent_name":"Bone Bolango","code":"","name":"Suwawa Selatan","kind":"District"},"geometry":{"type":"Point","coordinates":[123.17215683000006,0.494824749500054]},"id":null},{"type":"Feature","properties":{"parent_code":"7503","parent_name":"Bone Bolango","code":"","name":"Tilongkabila","kind":"District"},"geometry":{"type":"Point","coordinates":[123.13035152900005,0.583792213500061]},"id":null},{"type":"Feature","properties":{"parent_code":"7503","parent_name":"Bone Bolango","code":"","name":"Botupingge","kind":"District"},"geometry":{"type":"Point","coordinates":[123.10178166000009,0.5177007480000385]},"id":null},{"type":"Feature","properties":{"parent_code":"7503","parent_name":"Bone Bolango","code":"","name":"Bonepantai","kind":"District"},"geometry":{"type":"Point","coordinates":[123.22912650800004,0.40687730100006547]},"id":null},{"type":"Feature","properties":{"parent_code":"7503","parent_name":"Bone Bolango","code":"","name":"Bulango Utara","kind":"District"},"geometry":{"type":"Point","coordinates":[123.08132690900004,0.7079999425000381]},"id":null},{"type":"Feature","properties":{"parent_code":"7503","parent_name":"Bone Bolango","code":"","name":"Kabila Bone","kind":"District"},"geometry":{"type":"Point","coordinates":[123.13503387700007,0.451376989500062]},"id":null},{"type":"Feature","properties":{"parent_code":"7503","parent_name":"Bone Bolango","code":"","name":"Bone","kind":"District"},"geometry":{"type":"Point","coordinates":[123.45807187300011,0.37518815500004654]},"id":null},{"type":"Feature","properties":{"parent_code":"7503","parent_name":"Bone Bolango","code":"","name":"Kabila","kind":"District"},"geometry":{"type":"Point","coordinates":[123.10291762600008,0.5466103830000575]},"id":null},{"type":"Feature","properties":{"parent_code":"7503","parent_name":"Bone Bolango","code":"","name":"Suwawa","kind":"District"},"geometry":{"type":"Point","coordinates":[123.1791549350001,0.5711435310000754]},"id":null},{"type":"Feature","properties":{"parent_code":"7503","parent_name":"Bone Bolango","code":"","name":"Tapa","kind":"District"},"geometry":{"type":"Point","coordinates":[123.09746820550009,0.6245392205000225]},"id":null}]}