{"type":"FeatureCollection","features":[{"type":"Feature","properties":{"parent_code":"7571","parent_name":"Kota Gorontalo","code":"","name":"Kota Barat","kind":"District"},"geometry":{"type":"Point","coordinates":[123.02368146600008,0.5430949520000465]},"id":null},{"type":"Feature","properties":{"parent_code":"7571","parent_name":"Kota Gorontalo","code":"","name":"Kota Selatan","kind":"District"},"geometry":{"type":"Point","coordinates":[123.05678805450003,0.542322713500056]},"id":null},{"type":"Feature","properties":{"parent_code":"7571","parent_name":"Kota Gorontalo","code":"","name":"Kota Timur","kind":"District"},"geometry":{"type":"Point","coordinates":[123.07178816250007,0.542895839000039]},"id":null},{"type":"Feature","properties":{"parent_code":"7571","parent_name":"Kota Gorontalo","code":"","name":"Kota Tengah","kind":"District"},"geometry":{"type":"Point","coordinates":[123.05504389650008,0.564438463500068]},"id":null},{"type":"Feature","properties":{"parent_code":"7571","parent_name":"Kota Gorontalo","code":"","name":"Kota Utara","kind":"District"},"geometry":{"type":"Point","coordinates":[123.07796651150005,0.5626694365000445]},"id":null},{"type":"Feature","properties":{"parent_code":"7571","parent_name":"Kota Gorontalo","code":"","name":"Dungingi","kind":"District"},"geometry":{"type":"Point","coordinates":[123.03770672450003,0.5602961520000636]},"id":null},{"type":"Feature","properties":{"parent_code":"7571","parent_name":"Kota Gorontalo","code":"","name":"Hulonthalangi","kind":"District"},"geometry":{"type":"Point","coordinates":[123.03129175650008,0.5159262520000425]},"id":null},{"type":"Feature","properties":{"parent_code":"7571","parent_name":"Kota Gorontalo","code":"","name":"Sipatana","kind":"District"},"geometry":{"type":"Point","coordinates":[123.0598992140001,0.5785547185000439]},"id":null},{"type":"Feature","properties":{"parent_code":"7571","parent_name":"Kota Gorontalo","code":"","name":"Dumbo Raya","kind":"District"},"geometry":{"type":"Point","coordinates":[123.08034937150003,0.507115630000044]},"id":null}]}