{"type":"FeatureCollection","features":[{"type":"Feature","properties":{"parent_code":"5309","parent_name":"Ngada","code":"","name":"Jerebuu","kind":"District"},"geometry":{"type":"Point","coordinates":[121.00507926800003,-8.895501556499966]},"id":null},{"type":"Feature","properties":{"parent_code":"5309","parent_name":"Ngada","code":"","name":"Bajawa Utara","kind":"District"},"geometry":{"type":"Point","coordinates":[120.94169664050003,-8.696120985999954]},"id":null},{"type":"Feature","properties":{"parent_code":"5309","parent_name":"Ngada","code":"","name":"Wolomeze","kind":"District"},"geometry":{"type":"Point","coordinates":[121.02382675300004,-8.596496790999964]},"id":null},{"type":"Feature","properties":{"parent_code":"5309","parent_name":"Ngada","code":"","name":"Riung Barat","kind":"District"},"geometry":{"type":"Point","coordinates":[120.9333041540001,-8.538891137499945]},"id":null},{"type":"Feature","properties":{"parent_code":"5309","parent_name":"Ngada","code":"","name":"Golewa Barat","kind":"District"},"geometry":{"type":"Point","coordinates":[121.03222214350006,-8.808034780499952]},"id":null},{"type":"Feature","properties":{"parent_code":"5309","parent_name":"Ngada","code":"","name":"Golewa Selatan","kind":"District"},"geometry":{"type":"Point","coordinates":[121.07143416200006,-8.88891048499994]},"id":null},{"type":"Feature","properties":{"parent_code":"5309","parent_name":"Ngada","code":"","name":"Inerie","kind":"District"},"geometry":{"type":"Point","coordinates":[120.94763465250008,-8.912743810499961]},"id":null},{"type":"Feature","properties":{"parent_code":"5309","parent_name":"Ngada","code":"","name":"Aimere","kind":"District"},"geometry":{"type":"Point","coordinates":[120.88254324800005,-8.80556366099998]},"id":null},{"type":"Feature","properties":{"parent_code":"5309","parent_name":"Ngada","code":"","name":"Golewa","kind":"District"},"geometry":{"type":"Point","coordinates":[121.07485663850008,-8.823887174999953]},"id":null},{"type":"Feature","properties":{"parent_code":"5309","parent_name":"Ngada","code":"","name":"Riung","kind":"District"},"geometry":{"type":"Point","coordinates":[121.05333738450008,-8.46562426899996]},"id":null},{"type":"Feature","properties":{"parent_code":"5309","parent_name":"Ngada","code":"","name":"Bajawa","kind":"District"},"geometry":{"type":"Point","coordinates":[120.97352712000009,-8.808388080999976]},"id":null},{"type":"Feature","properties":{"parent_code":"5309","parent_name":"Ngada","code":"","name":"Soa","kind":"District"},"geometry":{"type":"Point","coordinates":[121.07140861950006,-8.704168110999973]},"id":null}]}