{"type":"FeatureCollection","features":[{"type":"Feature","properties":{"parent_code":"5310","parent_name":"Manggarai","code":"","name":"Ruteng","kind":"District"},"geometry":{"type":"Point","coordinates":[120.37608780700009,-8.605274042999952]},"id":null},{"type":"Feature","properties":{"parent_code":"5310","parent_name":"Manggarai","code":"","name":"Wae Rii","kind":"District"},"geometry":{"type":"Point","coordinates":[120.47683178450006,-8.586123394499984]},"id":null},{"type":"Feature","properties":{"parent_code":"5310","parent_name":"Manggarai","code":"","name":"Cibal","kind":"District"},"geometry":{"type":"Point","coordinates":[120.50279704600007,-8.464838763999978]},"id":null},{"type":"Feature","properties":{"parent_code":"5310","parent_name":"Manggarai","code":"","name":"Satar Mese","kind":"District"},"geometry":{"type":"Point","coordinates":[120.43865574150004,-8.723150180499971]},"id":null},{"type":"Feature","properties":{"parent_code":"5310","parent_name":"Manggarai","code":"","name":"Satar Mese Barat","kind":"District"},"geometry":{"type":"Point","coordinates":[120.31542862200001,-8.819725860999938]},"id":null},{"type":"Feature","properties":{"parent_code":"5310","parent_name":"Manggarai","code":"","name":"Rahong Utara","kind":"District"},"geometry":{"type":"Point","coordinates":[120.40203893450007,-8.509637298499939]},"id":null},{"type":"Feature","properties":{"parent_code":"5310","parent_name":"Manggarai","code":"","name":"Reok","kind":"District"},"geometry":{"type":"Point","coordinates":[120.42875230100003,-8.329343003999952]},"id":null},{"type":"Feature","properties":{"parent_code":"5310","parent_name":"Manggarai","code":"","name":"Langke Rembong","kind":"District"},"geometry":{"type":"Point","coordinates":[120.46299253300009,-8.612554768499962]},"id":null},{"type":"Feature","properties":{"parent_code":"5310","parent_name":"Manggarai","code":"","name":"Cibal barat","kind":"District"},"geometry":{"type":"Point","coordinates":[120.43766496900002,-8.468717702999953]},"id":null},{"type":"Feature","properties":{"parent_code":"5310","parent_name":"Manggarai","code":"","name":"Satar Mese Utara","kind":"District"},"geometry":{"type":"Point","coordinates":[120.34769740350009,-8.700360751999938]},"id":null},{"type":"Feature","properties":{"parent_code":"5310","parent_name":"Manggarai","code":"","name":"Lelak","kind":"District"},"geometry":{"type":"Point","coordinates":[120.3148294070001,-8.629217550999954]},"id":null},{"type":"Feature","properties":{"parent_code":"5310","parent_name":"Manggarai","code":"","name":"Reok Barat","kind":"District"},"geometry":{"type":"Point","coordinates":[120.35592543650012,-8.36815062149995]},"id":null}]}