{"type":"FeatureCollection","features":[{"type":"Feature","properties":{"parent_code":"5311","parent_name":"Sumba Timur","code":"","name":"Lewa","kind":"District"},"geometry":{"type":"Point","coordinates":[119.90973731150007,-9.646551289499968]},"id":null},{"type":"Feature","properties":{"parent_code":"5311","parent_name":"Sumba Timur","code":"","name":"Nggaha Ori Angu","kind":"District"},"geometry":{"type":"Point","coordinates":[120.02639275900009,-9.721259618499971]},"id":null},{"type":"Feature","properties":{"parent_code":"5311","parent_name":"Sumba Timur","code":"","name":"Kota Waingapu","kind":"District"},"geometry":{"type":"Point","coordinates":[120.17764300750008,-9.726540282999963]},"id":null},{"type":"Feature","properties":{"parent_code":"5311","parent_name":"Sumba Timur","code":"","name":"Haharu","kind":"District"},"geometry":{"type":"Point","coordinates":[119.97991028650011,-9.44886703849997]},"id":null},{"type":"Feature","properties":{"parent_code":"5311","parent_name":"Sumba Timur","code":"","name":"Pandawai","kind":"District"},"geometry":{"type":"Point","coordinates":[120.44047688850009,-9.768522670499948]},"id":null},{"type":"Feature","properties":{"parent_code":"5311","parent_name":"Sumba Timur","code":"","name":"Umalulu","kind":"District"},"geometry":{"type":"Point","coordinates":[120.58220797150005,-9.866971963499964]},"id":null},{"type":"Feature","properties":{"parent_code":"5311","parent_name":"Sumba Timur","code":"","name":"Tabundung","kind":"District"},"geometry":{"type":"Point","coordinates":[120.05506864600005,-9.954143143999971]},"id":null},{"type":"Feature","properties":{"parent_code":"5311","parent_name":"Sumba Timur","code":"","name":"Pinu Pahar","kind":"District"},"geometry":{"type":"Point","coordinates":[120.10373386100008,-10.09751558299996]},"id":null},{"type":"Feature","properties":{"parent_code":"5311","parent_name":"Sumba Timur","code":"","name":"Rindi","kind":"District"},"geometry":{"type":"Point","coordinates":[120.68870872300005,-9.98543134649995]},"id":null},{"type":"Feature","properties":{"parent_code":"5311","parent_name":"Sumba Timur","code":"","name":"Kahaungu Eti","kind":"District"},"geometry":{"type":"Point","coordinates":[120.47109580300008,-9.859245283999968]},"id":null},{"type":"Feature","properties":{"parent_code":"5311","parent_name":"Sumba Timur","code":"","name":"Matawai La Pawu","kind":"District"},"geometry":{"type":"Point","coordinates":[120.27814932350003,-9.986966443499938]},"id":null},{"type":"Feature","properties":{"parent_code":"5311","parent_name":"Sumba Timur","code":"","name":"Paberiwai","kind":"District"},"geometry":{"type":"Point","coordinates":[120.43112244000002,-10.039341340999954]},"id":null},{"type":"Feature","properties":{"parent_code":"5311","parent_name":"Sumba Timur","code":"","name":"Karera","kind":"District"},"geometry":{"type":"Point","coordinates":[120.2578331850001,-10.20306777449997]},"id":null},{"type":"Feature","properties":{"parent_code":"5311","parent_name":"Sumba Timur","code":"","name":"Lewa Tidahu","kind":"District"},"geometry":{"type":"Point","coordinates":[119.78033091250006,-9.791113224499952]},"id":null},{"type":"Feature","properties":{"parent_code":"5311","parent_name":"Sumba Timur","code":"","name":"Katala Hamu Lingu","kind":"District"},"geometry":{"type":"Point","coordinates":[119.90919575100008,-9.85967698899995]},"id":null},{"type":"Feature","properties":{"parent_code":"5311","parent_name":"Sumba Timur","code":"","name":"Kambera","kind":"District"},"geometry":{"type":"Point","coordinates":[120.26459793150002,-9.706448469499946]},"id":null},{"type":"Feature","properties":{"parent_code":"5311","parent_name":"Sumba Timur","code":"","name":"Kambata Mapambuhang","kind":"District"},"geometry":{"type":"Point","coordinates":[120.20748838800006,-9.832021247499938]},"id":null},{"type":"Feature","properties":{"parent_code":"5311","parent_name":"Sumba Timur","code":"","name":"Pahunga Lodu","kind":"District"},"geometry":{"type":"Point","coordinates":[120.68954029500009,-10.135672664499936]},"id":null},{"type":"Feature","properties":{"parent_code":"5311","parent_name":"Sumba Timur","code":"","name":"Wulla Waijelu","kind":"District"},"geometry":{"type":"Point","coordinates":[120.53571969050006,-10.23541640749994]},"id":null},{"type":"Feature","properties":{"parent_code":"5311","parent_name":"Sumba Timur","code":"","name":"Ngadu Ngala","kind":"District"},"geometry":{"type":"Point","coordinates":[120.40312282350004,-10.207241462999974]},"id":null},{"type":"Feature","properties":{"parent_code":"5311","parent_name":"Sumba Timur","code":"","name":"Mahu","kind":"District"},"geometry":{"type":"Point","coordinates":[120.47690652450001,-10.10108643099997]},"id":null},{"type":"Feature","properties":{"parent_code":"5311","parent_name":"Sumba Timur","code":"","name":"Kanatang","kind":"District"},"geometry":{"type":"Point","coordinates":[120.15609597900004,-9.573813568499958]},"id":null}]}