{"type":"FeatureCollection","features":[{"type":"Feature","properties":{"parent_code":"5321","parent_name":"Malaka","code":"","name":"Laenmanen","kind":"District"},"geometry":{"type":"Point","coordinates":[124.84285212700007,-9.406959294499927]},"id":null},{"type":"Feature","properties":{"parent_code":"5321","parent_name":"Malaka","code":"","name":"Malaka Timur","kind":"District"},"geometry":{"type":"Point","coordinates":[124.90678730100007,-9.423350542499946]},"id":null},{"type":"Feature","properties":{"parent_code":"5321","parent_name":"Malaka","code":"","name":"Kobalima","kind":"District"},"geometry":{"type":"Point","coordinates":[124.99758416650008,-9.46652416349994]},"id":null},{"type":"Feature","properties":{"parent_code":"5321","parent_name":"Malaka","code":"","name":"Botin Leobele","kind":"District"},"geometry":{"type":"Point","coordinates":[124.90426952400009,-9.495729590999957]},"id":null},{"type":"Feature","properties":{"parent_code":"5321","parent_name":"Malaka","code":"","name":"Kobalima Timur","kind":"District"},"geometry":{"type":"Point","coordinates":[125.03784868850005,-9.389994199999961]},"id":null},{"type":"Feature","properties":{"parent_code":"5321","parent_name":"Malaka","code":"","name":"Malaka Barat","kind":"District"},"geometry":{"type":"Point","coordinates":[124.93015531750007,-9.658088110999955]},"id":null},{"type":"Feature","properties":{"parent_code":"5321","parent_name":"Malaka","code":"","name":"Wewiku","kind":"District"},"geometry":{"type":"Point","coordinates":[124.84385188850007,-9.723636303999939]},"id":null},{"type":"Feature","properties":{"parent_code":"5321","parent_name":"Malaka","code":"","name":"Malaka Tengah","kind":"District"},"geometry":{"type":"Point","coordinates":[124.88981213900007,-9.567961386999968]},"id":null},{"type":"Feature","properties":{"parent_code":"5321","parent_name":"Malaka","code":"","name":"Io Kufeu","kind":"District"},"geometry":{"type":"Point","coordinates":[124.76971004700005,-9.513927821499948]},"id":null},{"type":"Feature","properties":{"parent_code":"5321","parent_name":"Malaka","code":"","name":"Sasitamean","kind":"District"},"geometry":{"type":"Point","coordinates":[124.82626286800007,-9.488481674999974]},"id":null},{"type":"Feature","properties":{"parent_code":"5321","parent_name":"Malaka","code":"","name":"Weliman","kind":"District"},"geometry":{"type":"Point","coordinates":[124.8761041845001,-9.631500533499946]},"id":null},{"type":"Feature","properties":{"parent_code":"5321","parent_name":"Malaka","code":"","name":"Rinhat","kind":"District"},"geometry":{"type":"Point","coordinates":[124.73970839450004,-9.599187002499946]},"id":null}]}