{"type":"FeatureCollection","features":[{"type":"Feature","properties":{"parent_code":"1702","parent_name":"Rejang Lebong","code":"","name":"Curup Utara","kind":"District"},"geometry":{"type":"Point","coordinates":[102.52097879100006,-3.4375012474999664]},"id":null},{"type":"Feature","properties":{"parent_code":"1702","parent_name":"Rejang Lebong","code":"","name":"Curup Timur","kind":"District"},"geometry":{"type":"Point","coordinates":[102.54823527150003,-3.45119750049997]},"id":null},{"type":"Feature","properties":{"parent_code":"1702","parent_name":"Rejang Lebong","code":"","name":"Curup Selatan","kind":"District"},"geometry":{"type":"Point","coordinates":[102.48210457250008,-3.503851231499965]},"id":null},{"type":"Feature","properties":{"parent_code":"1702","parent_name":"Rejang Lebong","code":"","name":"Curup Tengah","kind":"District"},"geometry":{"type":"Point","coordinates":[102.54466158800005,-3.4831607234999638]},"id":null},{"type":"Feature","properties":{"parent_code":"1702","parent_name":"Rejang Lebong","code":"","name":"Binduriang","kind":"District"},"geometry":{"type":"Point","coordinates":[102.75065888350005,-3.449969782999943]},"id":null},{"type":"Feature","properties":{"parent_code":"1702","parent_name":"Rejang Lebong","code":"","name":"Sindang Beliti Ilir","kind":"District"},"geometry":{"type":"Point","coordinates":[102.89188087850007,-3.470960349499933]},"id":null},{"type":"Feature","properties":{"parent_code":"1702","parent_name":"Rejang Lebong","code":"","name":"Bermani Ulu Raya","kind":"District"},"geometry":{"type":"Point","coordinates":[102.53931000700007,-3.3597786084999655]},"id":null},{"type":"Feature","properties":{"parent_code":"1702","parent_name":"Rejang Lebong","code":"","name":"Sindang Beliti Ulu","kind":"District"},"geometry":{"type":"Point","coordinates":[102.79444120550005,-3.469620846999959]},"id":null},{"type":"Feature","properties":{"parent_code":"1702","parent_name":"Rejang Lebong","code":"","name":"Sindang Dataran","kind":"District"},"geometry":{"type":"Point","coordinates":[102.72922852750006,-3.525176413499935]},"id":null},{"type":"Feature","properties":{"parent_code":"1702","parent_name":"Rejang Lebong","code":"","name":"Kota Padang","kind":"District"},"geometry":{"type":"Point","coordinates":[102.95140951900007,-3.4884555869999474]},"id":null},{"type":"Feature","properties":{"parent_code":"1702","parent_name":"Rejang Lebong","code":"","name":"Curup","kind":"District"},"geometry":{"type":"Point","coordinates":[102.51526166000005,-3.4704315029999577]},"id":null},{"type":"Feature","properties":{"parent_code":"1702","parent_name":"Rejang Lebong","code":"","name":"Padang Ulak Tanding","kind":"District"},"geometry":{"type":"Point","coordinates":[102.76067827950007,-3.356269524999931]},"id":null},{"type":"Feature","properties":{"parent_code":"1702","parent_name":"Rejang Lebong","code":"","name":"Sindang Kelingi","kind":"District"},"geometry":{"type":"Point","coordinates":[102.64588568900007,-3.4765103509999733]},"id":null},{"type":"Feature","properties":{"parent_code":"1702","parent_name":"Rejang Lebong","code":"","name":"Bermani Ulu","kind":"District"},"geometry":{"type":"Point","coordinates":[102.43371840400005,-3.432487177499951]},"id":null},{"type":"Feature","properties":{"parent_code":"1702","parent_name":"Rejang Lebong","code":"","name":"Selupu Rejang","kind":"District"},"geometry":{"type":"Point","coordinates":[102.61473761950006,-3.4474889674999645]},"id":null}]}