{"type":"FeatureCollection","features":[{"type":"Feature","properties":{"parent_code":"71","parent_name":"Sulawesi Utara","code":"7103","name":"Kepulauan Sangihe","kind":"City"},"geometry":{"type":"Point","coordinates":[125.54887922950007,3.841002001500044]},"id":7103},{"type":"Feature","properties":{"parent_code":"71","parent_name":"Sulawesi Utara","code":"7101","name":"Bolaang Mongondow","kind":"City"},"geometry":{"type":"Point","coordinates":[124.03530011700008,0.7210586915000474]},"id":7101},{"type":"Feature","properties":{"parent_code":"71","parent_name":"Sulawesi Utara","code":"7172","name":"Kota Bitung","kind":"City"},"geometry":{"type":"Point","coordinates":[125.1643731855001,1.4935687245000508]},"id":7172},{"type":"Feature","properties":{"parent_code":"71","parent_name":"Sulawesi Utara","code":"7173","name":"Kota Tomohon","kind":"City"},"geometry":{"type":"Point","coordinates":[124.82036773550004,1.323837971000046]},"id":7173},{"type":"Feature","properties":{"parent_code":"71","parent_name":"Sulawesi Utara","code":"7111","name":"Bolaang Mongondow Selatan","kind":"City"},"geometry":{"type":"Point","coordinates":[123.97479589350007,0.453616782500035]},"id":7111},{"type":"Feature","properties":{"parent_code":"71","parent_name":"Sulawesi Utara","code":"7174","name":"Kota Kotamobagu","kind":"City"},"geometry":{"type":"Point","coordinates":[124.31596527800002,0.7112457610000436]},"id":7174},{"type":"Feature","properties":{"parent_code":"71","parent_name":"Sulawesi Utara","code":"7102","name":"Minahasa","kind":"City"},"geometry":{"type":"Point","coordinates":[124.81435944600008,1.242296323500057]},"id":7102},{"type":"Feature","properties":{"parent_code":"71","parent_name":"Sulawesi Utara","code":"7105","name":"Minahasa Selatan","kind":"City"},"geometry":{"type":"Point","coordinates":[124.52842350750007,1.0705778610000325]},"id":7105},{"type":"Feature","properties":{"parent_code":"71","parent_name":"Sulawesi Utara","code":"7171","name":"Kota Manado","kind":"City"},"geometry":{"type":"Point","coordinates":[124.80772907850002,1.5386924935000366]},"id":7171},{"type":"Feature","properties":{"parent_code":"71","parent_name":"Sulawesi Utara","code":"7107","name":"Minahasa Tenggara","kind":"City"},"geometry":{"type":"Point","coordinates":[124.75068878650006,0.9882647055000575]},"id":7107},{"type":"Feature","properties":{"parent_code":"71","parent_name":"Sulawesi Utara","code":"7104","name":"Kepulauan Talaud","kind":"City"},"geometry":{"type":"Point","coordinates":[126.86984806700008,4.647115094000071]},"id":7104},{"type":"Feature","properties":{"parent_code":"71","parent_name":"Sulawesi Utara","code":"7109","name":"Kepulauan Siau Tagulandang Biaro","kind":"City"},"geometry":{"type":"Point","coordinates":[125.32488628900006,2.440829022000031]},"id":7109},{"type":"Feature","properties":{"parent_code":"71","parent_name":"Sulawesi Utara","code":"7108","name":"Bolaang Mongondow Utara","kind":"City"},"geometry":{"type":"Point","coordinates":[123.42317362150004,0.8041187670000626]},"id":7108},{"type":"Feature","properties":{"parent_code":"71","parent_name":"Sulawesi Utara","code":"7106","name":"Minahasa Utara","kind":"City"},"geometry":{"type":"Point","coordinates":[124.95987910450009,1.58675482700005]},"id":7106},{"type":"Feature","properties":{"parent_code":"71","parent_name":"Sulawesi Utara","code":"7110","name":"Bolaang Mongondow Timur","kind":"City"},"geometry":{"type":"Point","coordinates":[124.51889917750003,0.7013126885000536]},"id":7110}]}