{"type":"FeatureCollection","features":[{"type":"Feature","properties":{"parent_code":"75","parent_name":"Gorontalo","code":"7502","name":"Boalemo","kind":"City"},"geometry":{"type":"Point","coordinates":[122.37800339300003,0.6595134730000325]},"id":7502},{"type":"Feature","properties":{"parent_code":"75","parent_name":"Gorontalo","code":"7503","name":"Bone Bolango","kind":"City"},"geometry":{"type":"Point","coordinates":[123.30413402800008,0.5563282620000509]},"id":7503},{"type":"Feature","properties":{"parent_code":"75","parent_name":"Gorontalo","code":"7501","name":"Gorontalo","kind":"City"},"geometry":{"type":"Point","coordinates":[122.66280057550006,0.701185146500052]},"id":7501},{"type":"Feature","properties":{"parent_code":"75","parent_name":"Gorontalo","code":"7571","name":"Kota Gorontalo","kind":"City"},"geometry":{"type":"Point","coordinates":[123.04748805800003,0.5349051665000389]},"id":7571},{"type":"Feature","properties":{"parent_code":"75","parent_name":"Gorontalo","code":"7505","name":"Gorontalo Utara","kind":"City"},"geometry":{"type":"Point","coordinates":[122.62820722900005,0.8736814900000525]},"id":7505},{"type":"Feature","properties":{"parent_code":"75","parent_name":"Gorontalo","code":"7504","name":"Pohuwato","kind":"City"},"geometry":{"type":"Point","coordinates":[121.64433485500007,0.673238847500045]},"id":7504}]}