{"type":"FeatureCollection","features":[{"type":"Feature","properties":{"parent_code":"81","parent_name":"Maluku","code":"8103","name":"Kepulauan Tanimbar","kind":"City"},"geometry":{"type":"Point","coordinates":[129.3318995735001,-7.488500912499944]},"id":8103},{"type":"Feature","properties":{"parent_code":"81","parent_name":"Maluku","code":"8107","name":"Kepulauan Aru","kind":"City"},"geometry":{"type":"Point","coordinates":[134.48011199550007,-6.21318075749997]},"id":8107},{"type":"Feature","properties":{"parent_code":"81","parent_name":"Maluku","code":"8101","name":"Maluku Tengah","kind":"City"},"geometry":{"type":"Point","coordinates":[129.10678893800008,-4.85801135549994]},"id":8101},{"type":"Feature","properties":{"parent_code":"81","parent_name":"Maluku","code":"8109","name":"Buru Selatan","kind":"City"},"geometry":{"type":"Point","coordinates":[126.61959575700007,-3.5082259934999627]},"id":8109},{"type":"Feature","properties":{"parent_code":"81","parent_name":"Maluku","code":"8106","name":"Seram Bagian Barat","kind":"City"},"geometry":{"type":"Point","coordinates":[128.15639845350006,-3.201079067499961]},"id":8106},{"type":"Feature","properties":{"parent_code":"81","parent_name":"Maluku","code":"8102","name":"Maluku Tenggara","kind":"City"},"geometry":{"type":"Point","coordinates":[132.80990001800006,-5.655207753499951]},"id":8102},{"type":"Feature","properties":{"parent_code":"81","parent_name":"Maluku","code":"8172","name":"Kota Tual","kind":"City"},"geometry":{"type":"Point","coordinates":[132.37149751300007,-5.4411321694999515]},"id":8172},{"type":"Feature","properties":{"parent_code":"81","parent_name":"Maluku","code":"8108","name":"Maluku Barat Daya","kind":"City"},"geometry":{"type":"Point","coordinates":[127.90806805900007,-7.703050501499973]},"id":8108},{"type":"Feature","properties":{"parent_code":"81","parent_name":"Maluku","code":"8104","name":"Buru","kind":"City"},"geometry":{"type":"Point","coordinates":[126.68359164200007,-3.4355209389999573]},"id":8104},{"type":"Feature","properties":{"parent_code":"81","parent_name":"Maluku","code":"8171","name":"Kota Ambon","kind":"City"},"geometry":{"type":"Point","coordinates":[128.18367960600006,-3.684732077499973]},"id":8171},{"type":"Feature","properties":{"parent_code":"81","parent_name":"Maluku","code":"8105","name":"Seram Bagian Timur","kind":"City"},"geometry":{"type":"Point","coordinates":[130.861131687,-3.8798813919999304]},"id":8105}]}