{"type":"FeatureCollection","features":[{"type":"Feature","properties":{"parent_code":"9115","parent_name":"Waropen","code":"","name":"Wapoga","kind":"District"},"geometry":{"type":"Point","coordinates":[136.24296579250012,-2.832148537999956]},"id":null},{"type":"Feature","properties":{"parent_code":"9115","parent_name":"Waropen","code":"","name":"Demba","kind":"District"},"geometry":{"type":"Point","coordinates":[136.84223298650005,-2.468011454999953]},"id":null},{"type":"Feature","properties":{"parent_code":"9115","parent_name":"Waropen","code":"","name":"Kirihi","kind":"District"},"geometry":{"type":"Point","coordinates":[137.1235742930001,-2.94067917649997]},"id":null},{"type":"Feature","properties":{"parent_code":"9115","parent_name":"Waropen","code":"","name":"Oudate","kind":"District"},"geometry":{"type":"Point","coordinates":[136.52188334700008,-2.568277724999945]},"id":null},{"type":"Feature","properties":{"parent_code":"9115","parent_name":"Waropen","code":"","name":"Wonti","kind":"District"},"geometry":{"type":"Point","coordinates":[136.7766878330001,-2.5248758134999605]},"id":null},{"type":"Feature","properties":{"parent_code":"9115","parent_name":"Waropen","code":"","name":"Soyoi Mambai","kind":"District"},"geometry":{"type":"Point","coordinates":[136.58628263550003,-2.3425796994999644]},"id":null},{"type":"Feature","properties":{"parent_code":"9115","parent_name":"Waropen","code":"","name":"Walani","kind":"District"},"geometry":{"type":"Point","coordinates":[136.64277021300006,-3.1363591129999406]},"id":null},{"type":"Feature","properties":{"parent_code":"9115","parent_name":"Waropen","code":"","name":"Waropen Bawah","kind":"District"},"geometry":{"type":"Point","coordinates":[136.46182800200006,-2.295645454499976]},"id":null},{"type":"Feature","properties":{"parent_code":"9115","parent_name":"Waropen","code":"","name":"Masirei","kind":"District"},"geometry":{"type":"Point","coordinates":[136.9430350345001,-2.433599855999944]},"id":null},{"type":"Feature","properties":{"parent_code":"9115","parent_name":"Waropen","code":"","name":"Inggerus","kind":"District"},"geometry":{"type":"Point","coordinates":[136.41597627750002,-2.740642647999948]},"id":null},{"type":"Feature","properties":{"parent_code":"9115","parent_name":"Waropen","code":"","name":"Risei Sayati","kind":"District"},"geometry":{"type":"Point","coordinates":[136.70286087350007,-2.4978102714999295]},"id":null},{"type":"Feature","properties":{"parent_code":"9115","parent_name":"Waropen","code":"","name":"Urei Faisei","kind":"District"},"geometry":{"type":"Point","coordinates":[136.50107240500006,-2.2382768499999486]},"id":null}]}