{"type":"FeatureCollection","features":[{"type":"Feature","properties":{"parent_code":"9513","parent_name":"Yahukimo","code":"951309","name":"Dekai","kind":"District"},"geometry":{"type":"Point","coordinates":[139.52503824050007,-4.889708064499956]},"id":951309},{"type":"Feature","properties":{"parent_code":"9513","parent_name":"Yahukimo","code":"951303","name":"Ninia","kind":"District"},"geometry":{"type":"Point","coordinates":[139.32457202000006,-4.390108286999947]},"id":951303},{"type":"Feature","properties":{"parent_code":"9513","parent_name":"Yahukimo","code":"951301","name":"Kurima","kind":"District"},"geometry":{"type":"Point","coordinates":[138.9107221120001,-4.290483241999965]},"id":951301},{"type":"Feature","properties":{"parent_code":"9513","parent_name":"Yahukimo","code":"951302","name":"Anggruk","kind":"District"},"geometry":{"type":"Point","coordinates":[139.36744706550007,-4.202305848499947]},"id":951302},{"type":"Feature","properties":{"parent_code":"9513","parent_name":"Yahukimo","code":"951307","name":"Samenage","kind":"District"},"geometry":{"type":"Point","coordinates":[139.12370516800007,-4.497467469499952]},"id":951307},{"type":"Feature","properties":{"parent_code":"9513","parent_name":"Yahukimo","code":"951308","name":"Nalca","kind":"District"},"geometry":{"type":"Point","coordinates":[139.95188882600007,-4.421116242499949]},"id":951308},{"type":"Feature","properties":{"parent_code":"9513","parent_name":"Yahukimo","code":"951306","name":"Silimo","kind":"District"},"geometry":{"type":"Point","coordinates":[138.91880044800007,-4.464968854999938]},"id":951306},{"type":"Feature","properties":{"parent_code":"9513","parent_name":"Yahukimo","code":"951310","name":"Obio","kind":"District"},"geometry":{"type":"Point","coordinates":[139.19664610950008,-4.773653453499946]},"id":951310},{"type":"Feature","properties":{"parent_code":"9513","parent_name":"Yahukimo","code":"951311","name":"Suru Suru","kind":"District"},"geometry":{"type":"Point","coordinates":[138.99306425150007,-4.716536859999934]},"id":951311},{"type":"Feature","properties":{"parent_code":"9513","parent_name":"Yahukimo","code":"951314","name":"Musaik","kind":"District"},"geometry":{"type":"Point","coordinates":[139.04841471400005,-4.571176634999944]},"id":951314},{"type":"Feature","properties":{"parent_code":"9513","parent_name":"Yahukimo","code":"951315","name":"Pasema","kind":"District"},"geometry":{"type":"Point","coordinates":[139.15598474400002,-4.43280584249996]},"id":951315},{"type":"Feature","properties":{"parent_code":"9513","parent_name":"Yahukimo","code":"951312","name":"Wusama","kind":"District"},"geometry":{"type":"Point","coordinates":[138.90912810050008,-4.530360116999958]},"id":951312},{"type":"Feature","properties":{"parent_code":"9513","parent_name":"Yahukimo","code":"951313","name":"Amuma","kind":"District"},"geometry":{"type":"Point","coordinates":[139.0379026235001,-4.5255605624999475]},"id":951313},{"type":"Feature","properties":{"parent_code":"9513","parent_name":"Yahukimo","code":"951318","name":"Soba","kind":"District"},"geometry":{"type":"Point","coordinates":[139.20455677650006,-4.337884244499975]},"id":951318},{"type":"Feature","properties":{"parent_code":"9513","parent_name":"Yahukimo","code":"951319","name":"Werima","kind":"District"},"geometry":{"type":"Point","coordinates":[139.11906348000002,-4.355962026999947]},"id":951319},{"type":"Feature","properties":{"parent_code":"9513","parent_name":"Yahukimo","code":"951316","name":"Hogio","kind":"District"},"geometry":{"type":"Point","coordinates":[139.2501499715001,-4.546951089499942]},"id":951316},{"type":"Feature","properties":{"parent_code":"9513","parent_name":"Yahukimo","code":"951317","name":"Mugi","kind":"District"},"geometry":{"type":"Point","coordinates":[139.11236739750007,-4.253287072999967]},"id":951317},{"type":"Feature","properties":{"parent_code":"9513","parent_name":"Yahukimo","code":"951321","name":"Ukha","kind":"District"},"geometry":{"type":"Point","coordinates":[138.99520863200007,-4.394036283499958]},"id":951321},{"type":"Feature","properties":{"parent_code":"9513","parent_name":"Yahukimo","code":"951322","name":"Panggema","kind":"District"},"geometry":{"type":"Point","coordinates":[139.46010711300005,-4.132281462499947]},"id":951322},{"type":"Feature","properties":{"parent_code":"9513","parent_name":"Yahukimo","code":"951320","name":"Tangma","kind":"District"},"geometry":{"type":"Point","coordinates":[139.06172071100008,-4.2960575244999575]},"id":951320},{"type":"Feature","properties":{"parent_code":"9513","parent_name":"Yahukimo","code":"951325","name":"Ubahak","kind":"District"},"geometry":{"type":"Point","coordinates":[139.77110332400008,-4.087238301999946]},"id":951325},{"type":"Feature","properties":{"parent_code":"9513","parent_name":"Yahukimo","code":"951326","name":"Pronggoli","kind":"District"},"geometry":{"type":"Point","coordinates":[139.31000907700007,-4.158763480999966]},"id":951326},{"type":"Feature","properties":{"parent_code":"9513","parent_name":"Yahukimo","code":"951323","name":"Kosarek","kind":"District"},"geometry":{"type":"Point","coordinates":[139.5968122215001,-4.114718969999956]},"id":951323},{"type":"Feature","properties":{"parent_code":"9513","parent_name":"Yahukimo","code":"951324","name":"Nipsan","kind":"District"},"geometry":{"type":"Point","coordinates":[139.68546582500005,-4.188424184499951]},"id":951324},{"type":"Feature","properties":{"parent_code":"9513","parent_name":"Yahukimo","code":"951329","name":"Hereapini","kind":"District"},"geometry":{"type":"Point","coordinates":[139.45541140650005,-4.303251902999961]},"id":951329},{"type":"Feature","properties":{"parent_code":"9513","parent_name":"Yahukimo","code":"951327","name":"Walma","kind":"District"},"geometry":{"type":"Point","coordinates":[139.40983759300002,-4.252467100999951]},"id":951327},{"type":"Feature","properties":{"parent_code":"9513","parent_name":"Yahukimo","code":"951328","name":"Yahuliambut","kind":"District"},"geometry":{"type":"Point","coordinates":[139.64976671900007,-4.040482168499949]},"id":951328},{"type":"Feature","properties":{"parent_code":"9513","parent_name":"Yahukimo","code":"951332","name":"Puldama","kind":"District"},"geometry":{"type":"Point","coordinates":[139.88132446300006,-4.299871324999941]},"id":951332},{"type":"Feature","properties":{"parent_code":"9513","parent_name":"Yahukimo","code":"951333","name":"Endomen","kind":"District"},"geometry":{"type":"Point","coordinates":[139.97334348850006,-4.189239580499958]},"id":951333},{"type":"Feature","properties":{"parent_code":"9513","parent_name":"Yahukimo","code":"951330","name":"Ubalihi","kind":"District"},"geometry":{"type":"Point","coordinates":[139.5920456345001,-4.302970942999963]},"id":951330},{"type":"Feature","properties":{"parent_code":"9513","parent_name":"Yahukimo","code":"951331","name":"Talambo","kind":"District"},"geometry":{"type":"Point","coordinates":[139.91633821550005,-3.86555110249995]},"id":951331},{"type":"Feature","properties":{"parent_code":"9513","parent_name":"Yahukimo","code":"951336","name":"Holuon","kind":"District"},"geometry":{"type":"Point","coordinates":[139.3360276315001,-4.505240079499941]},"id":951336},{"type":"Feature","properties":{"parent_code":"9513","parent_name":"Yahukimo","code":"951337","name":"Lolat","kind":"District"},"geometry":{"type":"Point","coordinates":[139.44919503300008,-4.5265966329999685]},"id":951337},{"type":"Feature","properties":{"parent_code":"9513","parent_name":"Yahukimo","code":"951334","name":"Kona","kind":"District"},"geometry":{"type":"Point","coordinates":[139.74877769200003,-4.281520689999951]},"id":951334},{"type":"Feature","properties":{"parent_code":"9513","parent_name":"Yahukimo","code":"951335","name":"Dirwemna","kind":"District"},"geometry":{"type":"Point","coordinates":[140.00920767000002,-4.313355843999943]},"id":951335},{"type":"Feature","properties":{"parent_code":"9513","parent_name":"Yahukimo","code":"951338","name":"Soloikma","kind":"District"},"geometry":{"type":"Point","coordinates":[139.59209893150006,-4.461084111999952]},"id":951338},{"type":"Feature","properties":{"parent_code":"9513","parent_name":"Yahukimo","code":"951339","name":"Sela","kind":"District"},"geometry":{"type":"Point","coordinates":[139.79827880800002,-4.584356772999968]},"id":951339},{"type":"Feature","properties":{"parent_code":"9513","parent_name":"Yahukimo","code":"951340","name":"Korupun","kind":"District"},"geometry":{"type":"Point","coordinates":[139.72629603250004,-4.523275613999971]},"id":951340},{"type":"Feature","properties":{"parent_code":"9513","parent_name":"Yahukimo","code":"951343","name":"Suntamon","kind":"District"},"geometry":{"type":"Point","coordinates":[139.9862935980001,-4.915496826499947]},"id":951343},{"type":"Feature","properties":{"parent_code":"9513","parent_name":"Yahukimo","code":"951344","name":"Seredela","kind":"District"},"geometry":{"type":"Point","coordinates":[139.85604648450004,-5.018215218499961]},"id":951344},{"type":"Feature","properties":{"parent_code":"9513","parent_name":"Yahukimo","code":"951341","name":"Langda","kind":"District"},"geometry":{"type":"Point","coordinates":[139.9876607110001,-4.632283159999957]},"id":951341},{"type":"Feature","properties":{"parent_code":"9513","parent_name":"Yahukimo","code":"951342","name":"Bomela","kind":"District"},"geometry":{"type":"Point","coordinates":[139.88980102450012,-4.743133544999949]},"id":951342},{"type":"Feature","properties":{"parent_code":"9513","parent_name":"Yahukimo","code":"951347","name":"Kwelemdua","kind":"District"},"geometry":{"type":"Point","coordinates":[139.78285430950007,-4.702575682999964]},"id":951347},{"type":"Feature","properties":{"parent_code":"9513","parent_name":"Yahukimo","code":"951348","name":"Kwikma","kind":"District"},"geometry":{"type":"Point","coordinates":[139.30950833750006,-4.297264744499955]},"id":951348},{"type":"Feature","properties":{"parent_code":"9513","parent_name":"Yahukimo","code":"951345","name":"Sobaham","kind":"District"},"geometry":{"type":"Point","coordinates":[139.37676435600002,-4.414234556999958]},"id":951345},{"type":"Feature","properties":{"parent_code":"9513","parent_name":"Yahukimo","code":"951346","name":"Kabianggama","kind":"District"},"geometry":{"type":"Point","coordinates":[139.45624477850004,-4.410010169499941]},"id":951346},{"type":"Feature","properties":{"parent_code":"9513","parent_name":"Yahukimo","code":"951349","name":"Hilipuk","kind":"District"},"geometry":{"type":"Point","coordinates":[139.41922271700008,-4.577716772999963]},"id":951349},{"type":"Feature","properties":{"parent_code":"9513","parent_name":"Yahukimo","code":"951350","name":"Duram","kind":"District"},"geometry":{"type":"Point","coordinates":[139.52557453650007,-4.643180016999963]},"id":951350},{"type":"Feature","properties":{"parent_code":"9513","parent_name":"Yahukimo","code":"951351","name":"Yogosem","kind":"District"},"geometry":{"type":"Point","coordinates":[139.20366443150004,-4.2460799784999494]},"id":951351},{"type":"Feature","properties":{"parent_code":"9513","parent_name":"Yahukimo","code":"951352","name":"Kayo","kind":"District"},"geometry":{"type":"Point","coordinates":[139.21781510400007,-4.417729377999962]},"id":951352},{"type":"Feature","properties":{"parent_code":"9513","parent_name":"Yahukimo","code":"951353","name":"Sumo","kind":"District"},"geometry":{"type":"Point","coordinates":[139.3676900960001,-4.792059468999952]},"id":951353}]}