{"type":"FeatureCollection","features":[{"type":"Feature","properties":{"parent_code":"9206","parent_name":"Teluk Bintuni","code":"920602","name":"Merdey","kind":"District"},"geometry":{"type":"Point","coordinates":[133.2558893900001,-1.5900125934999494]},"id":920602},{"type":"Feature","properties":{"parent_code":"9206","parent_name":"Teluk Bintuni","code":"920603","name":"Babo","kind":"District"},"geometry":{"type":"Point","coordinates":[133.53100655750006,-2.5542406399999322]},"id":920603},{"type":"Feature","properties":{"parent_code":"9206","parent_name":"Teluk Bintuni","code":"920601","name":"Bintuni","kind":"District"},"geometry":{"type":"Point","coordinates":[133.46684066300003,-2.047225170999951]},"id":920601},{"type":"Feature","properties":{"parent_code":"9206","parent_name":"Teluk Bintuni","code":"920606","name":"Moskona Utara","kind":"District"},"geometry":{"type":"Point","coordinates":[133.01268132350003,-1.4188431344999515]},"id":920606},{"type":"Feature","properties":{"parent_code":"9206","parent_name":"Teluk Bintuni","code":"920607","name":"Wamesa","kind":"District"},"geometry":{"type":"Point","coordinates":[133.92857533650005,-2.302043301499964]},"id":920607},{"type":"Feature","properties":{"parent_code":"9206","parent_name":"Teluk Bintuni","code":"920604","name":"Aranday","kind":"District"},"geometry":{"type":"Point","coordinates":[133.09876656450007,-2.117198680499939]},"id":920604},{"type":"Feature","properties":{"parent_code":"9206","parent_name":"Teluk Bintuni","code":"920605","name":"Moskona Selatan","kind":"District"},"geometry":{"type":"Point","coordinates":[133.1672662370001,-1.7725691744999494]},"id":920605},{"type":"Feature","properties":{"parent_code":"9206","parent_name":"Teluk Bintuni","code":"920608","name":"Fafurwar","kind":"District"},"geometry":{"type":"Point","coordinates":[133.48807434550008,-2.92399038049993]},"id":920608},{"type":"Feature","properties":{"parent_code":"9206","parent_name":"Teluk Bintuni","code":"920609","name":"Tembuni","kind":"District"},"geometry":{"type":"Point","coordinates":[133.25295402200004,-2.003215830999949]},"id":920609},{"type":"Feature","properties":{"parent_code":"9206","parent_name":"Teluk Bintuni","code":"920610","name":"Kuri","kind":"District"},"geometry":{"type":"Point","coordinates":[134.02576454650006,-2.7686751774999436]},"id":920610},{"type":"Feature","properties":{"parent_code":"9206","parent_name":"Teluk Bintuni","code":"920613","name":"Dataran Beimes","kind":"District"},"geometry":{"type":"Point","coordinates":[133.71351908300005,-1.6537662334999654]},"id":920613},{"type":"Feature","properties":{"parent_code":"9206","parent_name":"Teluk Bintuni","code":"920614","name":"Sumuri","kind":"District"},"geometry":{"type":"Point","coordinates":[133.17041993500004,-2.564431333499954]},"id":920614},{"type":"Feature","properties":{"parent_code":"9206","parent_name":"Teluk Bintuni","code":"920611","name":"Manimeri","kind":"District"},"geometry":{"type":"Point","coordinates":[133.8716126870001,-2.0198411679999424]},"id":920611},{"type":"Feature","properties":{"parent_code":"9206","parent_name":"Teluk Bintuni","code":"920612","name":"Tuhiba","kind":"District"},"geometry":{"type":"Point","coordinates":[133.41113900750008,-1.9307595904999744]},"id":920612},{"type":"Feature","properties":{"parent_code":"9206","parent_name":"Teluk Bintuni","code":"920617","name":"Masyeta","kind":"District"},"geometry":{"type":"Point","coordinates":[133.17994748950002,-1.469622063499941]},"id":920617},{"type":"Feature","properties":{"parent_code":"9206","parent_name":"Teluk Bintuni","code":"920618","name":"Biscoop","kind":"District"},"geometry":{"type":"Point","coordinates":[133.48429854250008,-1.6119340799999404]},"id":920618},{"type":"Feature","properties":{"parent_code":"9206","parent_name":"Teluk Bintuni","code":"920615","name":"Kaitaro","kind":"District"},"geometry":{"type":"Point","coordinates":[133.75071794950009,-2.7530740899999557]},"id":920615},{"type":"Feature","properties":{"parent_code":"9206","parent_name":"Teluk Bintuni","code":"920616","name":"Aroba","kind":"District"},"geometry":{"type":"Point","coordinates":[133.36186433900008,-2.6933210549999558]},"id":920616},{"type":"Feature","properties":{"parent_code":"9206","parent_name":"Teluk Bintuni","code":"920619","name":"Tomu","kind":"District"},"geometry":{"type":"Point","coordinates":[133.03131753050008,-1.966434065999948]},"id":920619},{"type":"Feature","properties":{"parent_code":"9206","parent_name":"Teluk Bintuni","code":"920620","name":"Kamundan","kind":"District"},"geometry":{"type":"Point","coordinates":[132.72452477500008,-2.0849227204999465]},"id":920620},{"type":"Feature","properties":{"parent_code":"9206","parent_name":"Teluk Bintuni","code":"920621","name":"Weriagar","kind":"District"},"geometry":{"type":"Point","coordinates":[132.83242184400007,-2.046755312499954]},"id":920621},{"type":"Feature","properties":{"parent_code":"9206","parent_name":"Teluk Bintuni","code":"920624","name":"Moskona Timur","kind":"District"},"geometry":{"type":"Point","coordinates":[133.21674874,-1.3604817289999573]},"id":920624},{"type":"Feature","properties":{"parent_code":"9206","parent_name":"Teluk Bintuni","code":"920622","name":"Moskona Barat","kind":"District"},"geometry":{"type":"Point","coordinates":[132.9551914065001,-1.6548107679999475]},"id":920622},{"type":"Feature","properties":{"parent_code":"9206","parent_name":"Teluk Bintuni","code":"920623","name":"Meyado","kind":"District"},"geometry":{"type":"Point","coordinates":[133.0825307980001,-1.939504640499962]},"id":920623}]}