{"type":"FeatureCollection","features":[{"type":"Feature","properties":{"parent_code":"8171","parent_name":"Kota Ambon","code":"","name":"Sirimau","kind":"District"},"geometry":{"type":"Point","coordinates":[128.21503727000004,-3.6939315354999565]},"id":null},{"type":"Feature","properties":{"parent_code":"8171","parent_name":"Kota Ambon","code":"","name":"Baguala","kind":"District"},"geometry":{"type":"Point","coordinates":[128.23763311250008,-3.630599743499971]},"id":null},{"type":"Feature","properties":{"parent_code":"8171","parent_name":"Kota Ambon","code":"","name":"Nusaniwe","kind":"District"},"geometry":{"type":"Point","coordinates":[128.14881156900003,-3.7448419909999586]},"id":null},{"type":"Feature","properties":{"parent_code":"8171","parent_name":"Kota Ambon","code":"","name":"Teluk Ambon","kind":"District"},"geometry":{"type":"Point","coordinates":[128.14027650600002,-3.6739741174999385]},"id":null},{"type":"Feature","properties":{"parent_code":"8171","parent_name":"Kota Ambon","code":"","name":"Leitimur Selatan","kind":"District"},"geometry":{"type":"Point","coordinates":[128.25158103900003,-3.6958507889999623]},"id":null}]}