{"type":"FeatureCollection","features":[{"type":"Feature","properties":{"parent_code":"7601","parent_name":"Pasangkayu","code":"","name":"Baras","kind":"District"},"geometry":{"type":"Point","coordinates":[119.41385278150005,-1.563459981999955]},"id":null},{"type":"Feature","properties":{"parent_code":"7601","parent_name":"Pasangkayu","code":"","name":"Sarudu","kind":"District"},"geometry":{"type":"Point","coordinates":[119.34106919650003,-1.6726217619999484]},"id":null},{"type":"Feature","properties":{"parent_code":"7601","parent_name":"Pasangkayu","code":"","name":"Bambalamotu","kind":"District"},"geometry":{"type":"Point","coordinates":[119.49393259650003,-1.098883273999945]},"id":null},{"type":"Feature","properties":{"parent_code":"7601","parent_name":"Pasangkayu","code":"","name":"Pasangkayu","kind":"District"},"geometry":{"type":"Point","coordinates":[119.45312044850004,-1.1940768589999495]},"id":null},{"type":"Feature","properties":{"parent_code":"7601","parent_name":"Pasangkayu","code":"","name":"Bulu Taba","kind":"District"},"geometry":{"type":"Point","coordinates":[119.52776493850007,-1.4906919624999375]},"id":null},{"type":"Feature","properties":{"parent_code":"7601","parent_name":"Pasangkayu","code":"","name":"Tikke Raya","kind":"District"},"geometry":{"type":"Point","coordinates":[119.40064889150005,-1.3648269719999466]},"id":null},{"type":"Feature","properties":{"parent_code":"7601","parent_name":"Pasangkayu","code":"","name":"Dapurang","kind":"District"},"geometry":{"type":"Point","coordinates":[119.58719465500008,-1.721374314499968]},"id":null},{"type":"Feature","properties":{"parent_code":"7601","parent_name":"Pasangkayu","code":"","name":"Duripoku","kind":"District"},"geometry":{"type":"Point","coordinates":[119.54278464900005,-1.627096295999962]},"id":null},{"type":"Feature","properties":{"parent_code":"7601","parent_name":"Pasangkayu","code":"","name":"Pedongga","kind":"District"},"geometry":{"type":"Point","coordinates":[119.39910775750008,-1.2676002579999306]},"id":null},{"type":"Feature","properties":{"parent_code":"7601","parent_name":"Pasangkayu","code":"","name":"Lariang","kind":"District"},"geometry":{"type":"Point","coordinates":[119.34587868400007,-1.4584683079999365]},"id":null},{"type":"Feature","properties":{"parent_code":"7601","parent_name":"Pasangkayu","code":"","name":"Bambaira","kind":"District"},"geometry":{"type":"Point","coordinates":[119.52519462000004,-0.9903480139999775]},"id":null},{"type":"Feature","properties":{"parent_code":"7601","parent_name":"Pasangkayu","code":"","name":"Sarjo","kind":"District"},"geometry":{"type":"Point","coordinates":[119.54511990100002,-0.899540557499961]},"id":null}]}