{"type":"FeatureCollection","features":[{"type":"Feature","properties":{"parent_code":"7602","parent_name":"Mamuju","code":"","name":"Kalumpang","kind":"District"},"geometry":{"type":"Point","coordinates":[119.53469622250009,-2.512325415499959]},"id":null},{"type":"Feature","properties":{"parent_code":"7602","parent_name":"Mamuju","code":"","name":"Tapalang","kind":"District"},"geometry":{"type":"Point","coordinates":[118.94484306800007,-2.866584939999967]},"id":null},{"type":"Feature","properties":{"parent_code":"7602","parent_name":"Mamuju","code":"","name":"Kalukku","kind":"District"},"geometry":{"type":"Point","coordinates":[119.10291711200006,-2.591814598999946]},"id":null},{"type":"Feature","properties":{"parent_code":"7602","parent_name":"Mamuju","code":"","name":"Sampaga","kind":"District"},"geometry":{"type":"Point","coordinates":[119.21897167700001,-2.3657287199999644]},"id":null},{"type":"Feature","properties":{"parent_code":"7602","parent_name":"Mamuju","code":"","name":"Papalang","kind":"District"},"geometry":{"type":"Point","coordinates":[119.19893165800005,-2.4239578769999635]},"id":null},{"type":"Feature","properties":{"parent_code":"7602","parent_name":"Mamuju","code":"","name":"Mamuju","kind":"District"},"geometry":{"type":"Point","coordinates":[118.94746082950007,-2.713032450499952]},"id":null},{"type":"Feature","properties":{"parent_code":"7602","parent_name":"Mamuju","code":"","name":"Bonehau","kind":"District"},"geometry":{"type":"Point","coordinates":[119.31804957700007,-2.5783064574999344]},"id":null},{"type":"Feature","properties":{"parent_code":"7602","parent_name":"Mamuju","code":"","name":"Kep. Bala Balakang","kind":"District"},"geometry":{"type":"Point","coordinates":[117.50192794650007,-2.586911283499944]},"id":null},{"type":"Feature","properties":{"parent_code":"7602","parent_name":"Mamuju","code":"","name":"Tapalang Barat","kind":"District"},"geometry":{"type":"Point","coordinates":[118.80727628350007,-2.787897587499941]},"id":null},{"type":"Feature","properties":{"parent_code":"7602","parent_name":"Mamuju","code":"","name":"Tommo","kind":"District"},"geometry":{"type":"Point","coordinates":[119.47151646100002,-2.26434198849995]},"id":null},{"type":"Feature","properties":{"parent_code":"7602","parent_name":"Mamuju","code":"","name":"Simboro dan Kepulauan","kind":"District"},"geometry":{"type":"Point","coordinates":[118.84290202850002,-2.712356421499948]},"id":null}]}