{"type":"FeatureCollection","features":[{"type":"Feature","properties":{"parent_code":"6303","parent_name":"Banjar","code":"","name":"Astambul","kind":"District"},"geometry":{"type":"Point","coordinates":[114.90684861650004,-3.331923367499968]},"id":null},{"type":"Feature","properties":{"parent_code":"6303","parent_name":"Banjar","code":"","name":"Simpang Empat","kind":"District"},"geometry":{"type":"Point","coordinates":[115.04306706800008,-3.2335745374999476]},"id":null},{"type":"Feature","properties":{"parent_code":"6303","parent_name":"Banjar","code":"","name":"Martapura","kind":"District"},"geometry":{"type":"Point","coordinates":[114.83548186550007,-3.41335259899995]},"id":null},{"type":"Feature","properties":{"parent_code":"6303","parent_name":"Banjar","code":"","name":"Karang Intan","kind":"District"},"geometry":{"type":"Point","coordinates":[115.00634658300004,-3.513441030499962]},"id":null},{"type":"Feature","properties":{"parent_code":"6303","parent_name":"Banjar","code":"","name":"Pengaron","kind":"District"},"geometry":{"type":"Point","coordinates":[115.15246154700009,-3.3024211079999475]},"id":null},{"type":"Feature","properties":{"parent_code":"6303","parent_name":"Banjar","code":"","name":"Gambut","kind":"District"},"geometry":{"type":"Point","coordinates":[114.64660132350008,-3.431100015999959]},"id":null},{"type":"Feature","properties":{"parent_code":"6303","parent_name":"Banjar","code":"","name":"Sungai Tabuk","kind":"District"},"geometry":{"type":"Point","coordinates":[114.69746281900007,-3.314800942499943]},"id":null},{"type":"Feature","properties":{"parent_code":"6303","parent_name":"Banjar","code":"","name":"Aluh Aluh","kind":"District"},"geometry":{"type":"Point","coordinates":[114.54456201850007,-3.453133199999968]},"id":null},{"type":"Feature","properties":{"parent_code":"6303","parent_name":"Banjar","code":"","name":"Kertak Hanyar","kind":"District"},"geometry":{"type":"Point","coordinates":[114.63640560400006,-3.377174651999951]},"id":null},{"type":"Feature","properties":{"parent_code":"6303","parent_name":"Banjar","code":"","name":"Telaga Bauntung","kind":"District"},"geometry":{"type":"Point","coordinates":[115.22469861100006,-3.091521053499946]},"id":null},{"type":"Feature","properties":{"parent_code":"6303","parent_name":"Banjar","code":"","name":"Tatah Makmur","kind":"District"},"geometry":{"type":"Point","coordinates":[114.5808921475001,-3.4028148994999583]},"id":null},{"type":"Feature","properties":{"parent_code":"6303","parent_name":"Banjar","code":"","name":"Sambung Makmur","kind":"District"},"geometry":{"type":"Point","coordinates":[115.14122647450012,-3.22002695599997]},"id":null},{"type":"Feature","properties":{"parent_code":"6303","parent_name":"Banjar","code":"","name":"Paramasan","kind":"District"},"geometry":{"type":"Point","coordinates":[115.41475989250006,-3.019510234499961]},"id":null},{"type":"Feature","properties":{"parent_code":"6303","parent_name":"Banjar","code":"","name":"Sungai Pinang","kind":"District"},"geometry":{"type":"Point","coordinates":[115.32313319800005,-3.2370601739999643]},"id":null},{"type":"Feature","properties":{"parent_code":"6303","parent_name":"Banjar","code":"","name":"Aranio","kind":"District"},"geometry":{"type":"Point","coordinates":[115.16755013300008,-3.5506169639999428]},"id":null},{"type":"Feature","properties":{"parent_code":"6303","parent_name":"Banjar","code":"","name":"Martapura Barat","kind":"District"},"geometry":{"type":"Point","coordinates":[114.79563665050006,-3.339942721499966]},"id":null},{"type":"Feature","properties":{"parent_code":"6303","parent_name":"Banjar","code":"","name":"Martapura Timur","kind":"District"},"geometry":{"type":"Point","coordinates":[114.85560170550002,-3.3752803489999503]},"id":null},{"type":"Feature","properties":{"parent_code":"6303","parent_name":"Banjar","code":"","name":"Mataraman","kind":"District"},"geometry":{"type":"Point","coordinates":[114.99317698550004,-3.325693239499941]},"id":null},{"type":"Feature","properties":{"parent_code":"6303","parent_name":"Banjar","code":"","name":"Beruntung Baru","kind":"District"},"geometry":{"type":"Point","coordinates":[114.61493255050004,-3.49953709549996]},"id":null},{"type":"Feature","properties":{"parent_code":"6303","parent_name":"Banjar","code":"","name":"Cintapuri Darussalam","kind":"District"},"geometry":{"type":"Point","coordinates":[114.90617080050004,-3.1628073999999344]},"id":null}]}