{"type":"FeatureCollection","features":[{"type":"Feature","properties":{"parent_code":"9110","parent_name":"Sarmi","code":"","name":"Apawer Hulu","kind":"District"},"geometry":{"type":"Point","coordinates":[138.38471957950003,-2.162886697999966]},"id":null},{"type":"Feature","properties":{"parent_code":"9110","parent_name":"Sarmi","code":"","name":"Sarmi","kind":"District"},"geometry":{"type":"Point","coordinates":[138.7489322230001,-1.7665434884999625]},"id":null},{"type":"Feature","properties":{"parent_code":"9110","parent_name":"Sarmi","code":"","name":"Pantai Timur","kind":"District"},"geometry":{"type":"Point","coordinates":[139.2054056930001,-2.72646193199995]},"id":null},{"type":"Feature","properties":{"parent_code":"9110","parent_name":"Sarmi","code":"","name":"Bonggo","kind":"District"},"geometry":{"type":"Point","coordinates":[139.44343694150007,-2.7978107654999747]},"id":null},{"type":"Feature","properties":{"parent_code":"9110","parent_name":"Sarmi","code":"","name":"Tor Atas","kind":"District"},"geometry":{"type":"Point","coordinates":[138.72858433450006,-2.2904406954999383]},"id":null},{"type":"Feature","properties":{"parent_code":"9110","parent_name":"Sarmi","code":"","name":"Pantai Barat","kind":"District"},"geometry":{"type":"Point","coordinates":[138.38957894700008,-1.82957364899994]},"id":null},{"type":"Feature","properties":{"parent_code":"9110","parent_name":"Sarmi","code":"","name":"Sarmi Selatan","kind":"District"},"geometry":{"type":"Point","coordinates":[138.64128848950008,-1.974520286999962]},"id":null},{"type":"Feature","properties":{"parent_code":"9110","parent_name":"Sarmi","code":"","name":"Bonggo Timur","kind":"District"},"geometry":{"type":"Point","coordinates":[139.79557340150006,-2.4234910354999784]},"id":null},{"type":"Feature","properties":{"parent_code":"9110","parent_name":"Sarmi","code":"","name":"Sarmi Timur","kind":"District"},"geometry":{"type":"Point","coordinates":[138.79648538300006,-2.0359516074999533]},"id":null},{"type":"Feature","properties":{"parent_code":"9110","parent_name":"Sarmi","code":"","name":"Pantai Timur Bagian Barat","kind":"District"},"geometry":{"type":"Point","coordinates":[139.03433989300004,-2.27287031299997]},"id":null}]}