{"type":"FeatureCollection","features":[{"type":"Feature","properties":{"parent_code":"9111","parent_name":"Keerom","code":"","name":"Mannem","kind":"District"},"geometry":{"type":"Point","coordinates":[140.8161516285001,-3.013697475499953]},"id":null},{"type":"Feature","properties":{"parent_code":"9111","parent_name":"Keerom","code":"","name":"Towe","kind":"District"},"geometry":{"type":"Point","coordinates":[140.78990941000006,-3.9229329524999343]},"id":null},{"type":"Feature","properties":{"parent_code":"9111","parent_name":"Keerom","code":"","name":"Arso Barat","kind":"District"},"geometry":{"type":"Point","coordinates":[140.73060573450005,-2.80828007249994]},"id":null},{"type":"Feature","properties":{"parent_code":"9111","parent_name":"Keerom","code":"","name":"Waris","kind":"District"},"geometry":{"type":"Point","coordinates":[140.8098316880001,-3.2220549499999436]},"id":null},{"type":"Feature","properties":{"parent_code":"9111","parent_name":"Keerom","code":"","name":"Arso","kind":"District"},"geometry":{"type":"Point","coordinates":[140.61211388000004,-2.998435432499946]},"id":null},{"type":"Feature","properties":{"parent_code":"9111","parent_name":"Keerom","code":"","name":"Skanto","kind":"District"},"geometry":{"type":"Point","coordinates":[140.5521145145001,-2.878792298499974]},"id":null},{"type":"Feature","properties":{"parent_code":"9111","parent_name":"Keerom","code":"","name":"Arso Timur","kind":"District"},"geometry":{"type":"Point","coordinates":[140.89764511100003,-2.9204213874999425]},"id":null},{"type":"Feature","properties":{"parent_code":"9111","parent_name":"Keerom","code":"","name":"Senggi","kind":"District"},"geometry":{"type":"Point","coordinates":[140.61994997600004,-3.42734489649996]},"id":null},{"type":"Feature","properties":{"parent_code":"9111","parent_name":"Keerom","code":"","name":"Web","kind":"District"},"geometry":{"type":"Point","coordinates":[140.82362470500004,-3.668710562999962]},"id":null},{"type":"Feature","properties":{"parent_code":"9111","parent_name":"Keerom","code":"","name":"Yaffi","kind":"District"},"geometry":{"type":"Point","coordinates":[140.88974234400007,-3.4988842229999477]},"id":null},{"type":"Feature","properties":{"parent_code":"9111","parent_name":"Keerom","code":"","name":"Kaisenar","kind":"District"},"geometry":{"type":"Point","coordinates":[140.53703499800002,-3.8664320619999444]},"id":null}]}