{"type":"FeatureCollection","features":[{"type":"Feature","properties":{"parent_code":"7414","parent_name":"Buton Tengah","code":"","name":"Sangia Wambulu","kind":"District"},"geometry":{"type":"Point","coordinates":[122.63267999150008,-5.344560614999949]},"id":null},{"type":"Feature","properties":{"parent_code":"7414","parent_name":"Buton Tengah","code":"","name":"Talaga Raya","kind":"District"},"geometry":{"type":"Point","coordinates":[122.01236297950004,-5.467620789499932]},"id":null},{"type":"Feature","properties":{"parent_code":"7414","parent_name":"Buton Tengah","code":"","name":"Gu","kind":"District"},"geometry":{"type":"Point","coordinates":[122.57518325550006,-5.278157612999962]},"id":null},{"type":"Feature","properties":{"parent_code":"7414","parent_name":"Buton Tengah","code":"","name":"Mawasangka Tengah","kind":"District"},"geometry":{"type":"Point","coordinates":[122.40140281300006,-5.324277028499949]},"id":null},{"type":"Feature","properties":{"parent_code":"7414","parent_name":"Buton Tengah","code":"","name":"Mawasangka","kind":"District"},"geometry":{"type":"Point","coordinates":[122.35474328550009,-5.269509497499968]},"id":null},{"type":"Feature","properties":{"parent_code":"7414","parent_name":"Buton Tengah","code":"","name":"Lakudo","kind":"District"},"geometry":{"type":"Point","coordinates":[122.52276537800003,-5.3248600374999455]},"id":null},{"type":"Feature","properties":{"parent_code":"7414","parent_name":"Buton Tengah","code":"","name":"Mawasangka Timur","kind":"District"},"geometry":{"type":"Point","coordinates":[122.4402990805001,-5.357510825499958]},"id":null}]}