{"type":"FeatureCollection","features":[{"type":"Feature","properties":{"parent_code":"7472","parent_name":"Kota Bau Bau","code":"","name":"Sorawolio","kind":"District"},"geometry":{"type":"Point","coordinates":[122.71099725150003,-5.427488044999933]},"id":null},{"type":"Feature","properties":{"parent_code":"7472","parent_name":"Kota Bau Bau","code":"","name":"Bungi","kind":"District"},"geometry":{"type":"Point","coordinates":[122.69441026950005,-5.368656673999936]},"id":null},{"type":"Feature","properties":{"parent_code":"7472","parent_name":"Kota Bau Bau","code":"","name":"Betoambari","kind":"District"},"geometry":{"type":"Point","coordinates":[122.58974060450004,-5.503263763999939]},"id":null},{"type":"Feature","properties":{"parent_code":"7472","parent_name":"Kota Bau Bau","code":"","name":"Wolio","kind":"District"},"geometry":{"type":"Point","coordinates":[122.63699487700006,-5.483708433999965]},"id":null},{"type":"Feature","properties":{"parent_code":"7472","parent_name":"Kota Bau Bau","code":"","name":"Lea-Lea","kind":"District"},"geometry":{"type":"Point","coordinates":[122.64809232750008,-5.361241332999953]},"id":null},{"type":"Feature","properties":{"parent_code":"7472","parent_name":"Kota Bau Bau","code":"","name":"Batupoaro","kind":"District"},"geometry":{"type":"Point","coordinates":[122.59523204850007,-5.4623891469999535]},"id":null},{"type":"Feature","properties":{"parent_code":"7472","parent_name":"Kota Bau Bau","code":"","name":"Kokalukuna","kind":"District"},"geometry":{"type":"Point","coordinates":[122.65043019900003,-5.43945830049995]},"id":null},{"type":"Feature","properties":{"parent_code":"7472","parent_name":"Kota Bau Bau","code":"","name":"Murhum","kind":"District"},"geometry":{"type":"Point","coordinates":[122.60226501900001,-5.478722519999934]},"id":null}]}