{"type":"FeatureCollection","features":[{"type":"Feature","properties":{"parent_code":"3503","parent_name":"Trenggalek","code":"","name":"Munjungan","kind":"District"},"geometry":{"type":"Point","coordinates":[111.57140552550007,-8.31128269149994]},"id":null},{"type":"Feature","properties":{"parent_code":"3503","parent_name":"Trenggalek","code":"","name":"Pule","kind":"District"},"geometry":{"type":"Point","coordinates":[111.53566908150006,-8.11189663099995]},"id":null},{"type":"Feature","properties":{"parent_code":"3503","parent_name":"Trenggalek","code":"","name":"Panggul","kind":"District"},"geometry":{"type":"Point","coordinates":[111.45550527900005,-8.243466893999965]},"id":null},{"type":"Feature","properties":{"parent_code":"3503","parent_name":"Trenggalek","code":"","name":"Karangan","kind":"District"},"geometry":{"type":"Point","coordinates":[111.66751914450006,-8.071459224999955]},"id":null},{"type":"Feature","properties":{"parent_code":"3503","parent_name":"Trenggalek","code":"","name":"Kampak","kind":"District"},"geometry":{"type":"Point","coordinates":[111.65487378950004,-8.20062999949997]},"id":null},{"type":"Feature","properties":{"parent_code":"3503","parent_name":"Trenggalek","code":"","name":"Dongko","kind":"District"},"geometry":{"type":"Point","coordinates":[111.55917664050006,-8.205537782499981]},"id":null},{"type":"Feature","properties":{"parent_code":"3503","parent_name":"Trenggalek","code":"","name":"Tugu","kind":"District"},"geometry":{"type":"Point","coordinates":[111.62928778150004,-8.02477772249998]},"id":null},{"type":"Feature","properties":{"parent_code":"3503","parent_name":"Trenggalek","code":"","name":"Watulimo","kind":"District"},"geometry":{"type":"Point","coordinates":[111.71325126200006,-8.276895926499947]},"id":null},{"type":"Feature","properties":{"parent_code":"3503","parent_name":"Trenggalek","code":"","name":"Bendungan","kind":"District"},"geometry":{"type":"Point","coordinates":[111.70418062300007,-7.948536505499959]},"id":null},{"type":"Feature","properties":{"parent_code":"3503","parent_name":"Trenggalek","code":"","name":"Durenan","kind":"District"},"geometry":{"type":"Point","coordinates":[111.80777528450005,-8.088002084499948]},"id":null},{"type":"Feature","properties":{"parent_code":"3503","parent_name":"Trenggalek","code":"","name":"Suruh","kind":"District"},"geometry":{"type":"Point","coordinates":[111.62503577150002,-8.109909998999939]},"id":null},{"type":"Feature","properties":{"parent_code":"3503","parent_name":"Trenggalek","code":"","name":"Trenggalek","kind":"District"},"geometry":{"type":"Point","coordinates":[111.72003960050006,-8.033782492499967]},"id":null},{"type":"Feature","properties":{"parent_code":"3503","parent_name":"Trenggalek","code":"","name":"Pogalan","kind":"District"},"geometry":{"type":"Point","coordinates":[111.74662414300005,-8.086932025499948]},"id":null},{"type":"Feature","properties":{"parent_code":"3503","parent_name":"Trenggalek","code":"","name":"Gandusari","kind":"District"},"geometry":{"type":"Point","coordinates":[111.71661682050006,-8.138982543499935]},"id":null}]}