{"type":"FeatureCollection","features":[{"type":"Feature","properties":{"parent_code":"3510","parent_name":"Banyuwangi","code":"","name":"Giri","kind":"District"},"geometry":{"type":"Point","coordinates":[114.32788674900002,-8.19252739099997]},"id":null},{"type":"Feature","properties":{"parent_code":"3510","parent_name":"Banyuwangi","code":"","name":"Wongsorejo","kind":"District"},"geometry":{"type":"Point","coordinates":[114.34345277500006,-7.988520598999969]},"id":null},{"type":"Feature","properties":{"parent_code":"3510","parent_name":"Banyuwangi","code":"","name":"Glagah","kind":"District"},"geometry":{"type":"Point","coordinates":[114.30508654950006,-8.18411550549996]},"id":null},{"type":"Feature","properties":{"parent_code":"3510","parent_name":"Banyuwangi","code":"","name":"Banyuwangi","kind":"District"},"geometry":{"type":"Point","coordinates":[114.36199967150003,-8.224732749999959]},"id":null},{"type":"Feature","properties":{"parent_code":"3510","parent_name":"Banyuwangi","code":"","name":"Songgon","kind":"District"},"geometry":{"type":"Point","coordinates":[114.15682357600008,-8.197466445999936]},"id":null},{"type":"Feature","properties":{"parent_code":"3510","parent_name":"Banyuwangi","code":"","name":"Sempu","kind":"District"},"geometry":{"type":"Point","coordinates":[114.15068493650011,-8.280711697999948]},"id":null},{"type":"Feature","properties":{"parent_code":"3510","parent_name":"Banyuwangi","code":"","name":"Kalipuro","kind":"District"},"geometry":{"type":"Point","coordinates":[114.33026929250008,-8.126239880999975]},"id":null},{"type":"Feature","properties":{"parent_code":"3510","parent_name":"Banyuwangi","code":"","name":"Licin","kind":"District"},"geometry":{"type":"Point","coordinates":[114.23935832450007,-8.150709802499932]},"id":null},{"type":"Feature","properties":{"parent_code":"3510","parent_name":"Banyuwangi","code":"","name":"Blimbingsari","kind":"District"},"geometry":{"type":"Point","coordinates":[114.3313898350001,-8.325509759499965]},"id":null},{"type":"Feature","properties":{"parent_code":"3510","parent_name":"Banyuwangi","code":"","name":"Siliragung","kind":"District"},"geometry":{"type":"Point","coordinates":[114.09023708100005,-8.52531500349997]},"id":null},{"type":"Feature","properties":{"parent_code":"3510","parent_name":"Banyuwangi","code":"","name":"Tegalsari","kind":"District"},"geometry":{"type":"Point","coordinates":[114.13266999950005,-8.414293026499962]},"id":null},{"type":"Feature","properties":{"parent_code":"3510","parent_name":"Banyuwangi","code":"","name":"Bangorejo","kind":"District"},"geometry":{"type":"Point","coordinates":[114.16358625350001,-8.555321565999947]},"id":null},{"type":"Feature","properties":{"parent_code":"3510","parent_name":"Banyuwangi","code":"","name":"Purwoharjo","kind":"District"},"geometry":{"type":"Point","coordinates":[114.23668107850006,-8.545543936999962]},"id":null},{"type":"Feature","properties":{"parent_code":"3510","parent_name":"Banyuwangi","code":"","name":"Pesanggaran","kind":"District"},"geometry":{"type":"Point","coordinates":[113.97863643450006,-8.526756623999944]},"id":null},{"type":"Feature","properties":{"parent_code":"3510","parent_name":"Banyuwangi","code":"","name":"Cluring","kind":"District"},"geometry":{"type":"Point","coordinates":[114.23686716850005,-8.436607522999964]},"id":null},{"type":"Feature","properties":{"parent_code":"3510","parent_name":"Banyuwangi","code":"","name":"Gambiran","kind":"District"},"geometry":{"type":"Point","coordinates":[114.16719843900006,-8.418345183999946]},"id":null},{"type":"Feature","properties":{"parent_code":"3510","parent_name":"Banyuwangi","code":"","name":"Tegaldlimo","kind":"District"},"geometry":{"type":"Point","coordinates":[114.43914575900004,-8.613512325499954]},"id":null},{"type":"Feature","properties":{"parent_code":"3510","parent_name":"Banyuwangi","code":"","name":"Muncar","kind":"District"},"geometry":{"type":"Point","coordinates":[114.31935350750007,-8.446566552999968]},"id":null},{"type":"Feature","properties":{"parent_code":"3510","parent_name":"Banyuwangi","code":"","name":"Srono","kind":"District"},"geometry":{"type":"Point","coordinates":[114.25820115200008,-8.376276245999946]},"id":null},{"type":"Feature","properties":{"parent_code":"3510","parent_name":"Banyuwangi","code":"","name":"Genteng","kind":"District"},"geometry":{"type":"Point","coordinates":[114.15545533450006,-8.332564757999961]},"id":null},{"type":"Feature","properties":{"parent_code":"3510","parent_name":"Banyuwangi","code":"","name":"Glenmore","kind":"District"},"geometry":{"type":"Point","coordinates":[114.02858381750008,-8.281304161499946]},"id":null},{"type":"Feature","properties":{"parent_code":"3510","parent_name":"Banyuwangi","code":"","name":"Rogojampi","kind":"District"},"geometry":{"type":"Point","coordinates":[114.29144423200006,-8.325419232999934]},"id":null},{"type":"Feature","properties":{"parent_code":"3510","parent_name":"Banyuwangi","code":"","name":"Kabat","kind":"District"},"geometry":{"type":"Point","coordinates":[114.30815189400005,-8.262673623999945]},"id":null},{"type":"Feature","properties":{"parent_code":"3510","parent_name":"Banyuwangi","code":"","name":"Kalibaru","kind":"District"},"geometry":{"type":"Point","coordinates":[113.97504995150007,-8.269697922999939]},"id":null},{"type":"Feature","properties":{"parent_code":"3510","parent_name":"Banyuwangi","code":"","name":"Singojuruh","kind":"District"},"geometry":{"type":"Point","coordinates":[114.22812390050007,-8.299350956999973]},"id":null}]}