{"type":"FeatureCollection","features":[{"type":"Feature","properties":{"parent_code":"3514","parent_name":"Pasuruan","code":"","name":"Tutur","kind":"District"},"geometry":{"type":"Point","coordinates":[112.84630305750005,-7.868452922499955]},"id":null},{"type":"Feature","properties":{"parent_code":"3514","parent_name":"Pasuruan","code":"","name":"Puspo","kind":"District"},"geometry":{"type":"Point","coordinates":[112.88847000000001,-7.855255318499981]},"id":null},{"type":"Feature","properties":{"parent_code":"3514","parent_name":"Pasuruan","code":"","name":"Purwodadi","kind":"District"},"geometry":{"type":"Point","coordinates":[112.70408654050004,-7.817924232499962]},"id":null},{"type":"Feature","properties":{"parent_code":"3514","parent_name":"Pasuruan","code":"","name":"Kejayan","kind":"District"},"geometry":{"type":"Point","coordinates":[112.83506066300009,-7.736085]},"id":null},{"type":"Feature","properties":{"parent_code":"3514","parent_name":"Pasuruan","code":"","name":"Wonorejo","kind":"District"},"geometry":{"type":"Point","coordinates":[112.79400500000008,-7.721702017499965]},"id":null},{"type":"Feature","properties":{"parent_code":"3514","parent_name":"Pasuruan","code":"","name":"Lumbang","kind":"District"},"geometry":{"type":"Point","coordinates":[112.99096000050008,-7.832078787499965]},"id":null},{"type":"Feature","properties":{"parent_code":"3514","parent_name":"Pasuruan","code":"","name":"Pasrepan","kind":"District"},"geometry":{"type":"Point","coordinates":[112.86316500000007,-7.780389999999954]},"id":null},{"type":"Feature","properties":{"parent_code":"3514","parent_name":"Pasuruan","code":"","name":"Purwosari","kind":"District"},"geometry":{"type":"Point","coordinates":[112.68827380400006,-7.7577299999999525]},"id":null},{"type":"Feature","properties":{"parent_code":"3514","parent_name":"Pasuruan","code":"","name":"Sukorejo","kind":"District"},"geometry":{"type":"Point","coordinates":[112.72943643500005,-7.690320000999991]},"id":null},{"type":"Feature","properties":{"parent_code":"3514","parent_name":"Pasuruan","code":"","name":"Beji","kind":"District"},"geometry":{"type":"Point","coordinates":[112.74673953200002,-7.602905616499953]},"id":null},{"type":"Feature","properties":{"parent_code":"3514","parent_name":"Pasuruan","code":"","name":"Bangil","kind":"District"},"geometry":{"type":"Point","coordinates":[112.81823641000004,-7.587045232499975]},"id":null},{"type":"Feature","properties":{"parent_code":"3514","parent_name":"Pasuruan","code":"","name":"Pandaan","kind":"District"},"geometry":{"type":"Point","coordinates":[112.71295500000005,-7.646436083999985]},"id":null},{"type":"Feature","properties":{"parent_code":"3514","parent_name":"Pasuruan","code":"","name":"Gempol","kind":"District"},"geometry":{"type":"Point","coordinates":[112.67629407550004,-7.594219544999966]},"id":null},{"type":"Feature","properties":{"parent_code":"3514","parent_name":"Pasuruan","code":"","name":"Pohjentrek","kind":"District"},"geometry":{"type":"Point","coordinates":[112.86682229500002,-7.661975]},"id":null},{"type":"Feature","properties":{"parent_code":"3514","parent_name":"Pasuruan","code":"","name":"Gondangwetan","kind":"District"},"geometry":{"type":"Point","coordinates":[112.913095,-7.708645000000001]},"id":null},{"type":"Feature","properties":{"parent_code":"3514","parent_name":"Pasuruan","code":"","name":"Rembang","kind":"District"},"geometry":{"type":"Point","coordinates":[112.79849999950005,-7.645645000999934]},"id":null},{"type":"Feature","properties":{"parent_code":"3514","parent_name":"Pasuruan","code":"","name":"Kraton","kind":"District"},"geometry":{"type":"Point","coordinates":[112.85787539250003,-7.64103342249993]},"id":null},{"type":"Feature","properties":{"parent_code":"3514","parent_name":"Pasuruan","code":"","name":"Prigen","kind":"District"},"geometry":{"type":"Point","coordinates":[112.63752365650004,-7.690297103499972]},"id":null},{"type":"Feature","properties":{"parent_code":"3514","parent_name":"Pasuruan","code":"","name":"Winongan","kind":"District"},"geometry":{"type":"Point","coordinates":[112.94489640300002,-7.7462621424999885]},"id":null},{"type":"Feature","properties":{"parent_code":"3514","parent_name":"Pasuruan","code":"","name":"Tosari","kind":"District"},"geometry":{"type":"Point","coordinates":[112.90341817450002,-7.89499504799997]},"id":null},{"type":"Feature","properties":{"parent_code":"3514","parent_name":"Pasuruan","code":"","name":"Lekok","kind":"District"},"geometry":{"type":"Point","coordinates":[113.00588135150008,-7.672163911999945]},"id":null},{"type":"Feature","properties":{"parent_code":"3514","parent_name":"Pasuruan","code":"","name":"Rejoso","kind":"District"},"geometry":{"type":"Point","coordinates":[112.94669890000006,-7.6684317539999665]},"id":null},{"type":"Feature","properties":{"parent_code":"3514","parent_name":"Pasuruan","code":"","name":"Grati","kind":"District"},"geometry":{"type":"Point","coordinates":[113.00263724000004,-7.73812817299995]},"id":null},{"type":"Feature","properties":{"parent_code":"3514","parent_name":"Pasuruan","code":"","name":"Nguling","kind":"District"},"geometry":{"type":"Point","coordinates":[113.05314769000006,-7.731276150999946]},"id":null}]}