{"type":"FeatureCollection","features":[{"type":"Feature","properties":{"parent_code":"3521","parent_name":"Ngawi","code":"","name":"Ngrambe","kind":"District"},"geometry":{"type":"Point","coordinates":[111.22498580000007,-7.510611219499981]},"id":null},{"type":"Feature","properties":{"parent_code":"3521","parent_name":"Ngawi","code":"","name":"Jogorogo","kind":"District"},"geometry":{"type":"Point","coordinates":[111.26112636600007,-7.543592015499968]},"id":null},{"type":"Feature","properties":{"parent_code":"3521","parent_name":"Ngawi","code":"","name":"Sine","kind":"District"},"geometry":{"type":"Point","coordinates":[111.16291235950007,-7.517949045499977]},"id":null},{"type":"Feature","properties":{"parent_code":"3521","parent_name":"Ngawi","code":"","name":"Kwadungan","kind":"District"},"geometry":{"type":"Point","coordinates":[111.51349618750007,-7.511184112999956]},"id":null},{"type":"Feature","properties":{"parent_code":"3521","parent_name":"Ngawi","code":"","name":"Karangjati","kind":"District"},"geometry":{"type":"Point","coordinates":[111.60914323750004,-7.44698474599997]},"id":null},{"type":"Feature","properties":{"parent_code":"3521","parent_name":"Ngawi","code":"","name":"Kendal","kind":"District"},"geometry":{"type":"Point","coordinates":[111.27830753100005,-7.560955607999944]},"id":null},{"type":"Feature","properties":{"parent_code":"3521","parent_name":"Ngawi","code":"","name":"Geneng","kind":"District"},"geometry":{"type":"Point","coordinates":[111.43060691250005,-7.478896915499945]},"id":null},{"type":"Feature","properties":{"parent_code":"3521","parent_name":"Ngawi","code":"","name":"Padas","kind":"District"},"geometry":{"type":"Point","coordinates":[111.52645150000001,-7.442779581499963]},"id":null},{"type":"Feature","properties":{"parent_code":"3521","parent_name":"Ngawi","code":"","name":"Ngawi","kind":"District"},"geometry":{"type":"Point","coordinates":[111.44345,-7.41892336449996]},"id":null},{"type":"Feature","properties":{"parent_code":"3521","parent_name":"Ngawi","code":"","name":"Paron","kind":"District"},"geometry":{"type":"Point","coordinates":[111.36770712700007,-7.457433495499987]},"id":null},{"type":"Feature","properties":{"parent_code":"3521","parent_name":"Ngawi","code":"","name":"Mantingan","kind":"District"},"geometry":{"type":"Point","coordinates":[111.16187453350005,-7.380448]},"id":null},{"type":"Feature","properties":{"parent_code":"3521","parent_name":"Ngawi","code":"","name":"Pangkur","kind":"District"},"geometry":{"type":"Point","coordinates":[111.54230587000004,-7.492816299499964]},"id":null},{"type":"Feature","properties":{"parent_code":"3521","parent_name":"Ngawi","code":"","name":"Kedunggalar","kind":"District"},"geometry":{"type":"Point","coordinates":[111.31567749950004,-7.4311250009999785]},"id":null},{"type":"Feature","properties":{"parent_code":"3521","parent_name":"Ngawi","code":"","name":"Widodaren","kind":"District"},"geometry":{"type":"Point","coordinates":[111.23220310800002,-7.406658157499966]},"id":null},{"type":"Feature","properties":{"parent_code":"3521","parent_name":"Ngawi","code":"","name":"Karanganyar","kind":"District"},"geometry":{"type":"Point","coordinates":[111.22910486450007,-7.321247397499945]},"id":null},{"type":"Feature","properties":{"parent_code":"3521","parent_name":"Ngawi","code":"","name":"Gerih","kind":"District"},"geometry":{"type":"Point","coordinates":[111.38468488250004,-7.537717331499948]},"id":null},{"type":"Feature","properties":{"parent_code":"3521","parent_name":"Ngawi","code":"","name":"Bringin","kind":"District"},"geometry":{"type":"Point","coordinates":[111.58373787800008,-7.398934595499952]},"id":null},{"type":"Feature","properties":{"parent_code":"3521","parent_name":"Ngawi","code":"","name":"Pitu","kind":"District"},"geometry":{"type":"Point","coordinates":[111.37285336600004,-7.359566401499933]},"id":null},{"type":"Feature","properties":{"parent_code":"3521","parent_name":"Ngawi","code":"","name":"Kasreman","kind":"District"},"geometry":{"type":"Point","coordinates":[111.52210569600004,-7.404366277999991]},"id":null}]}