{"type":"FeatureCollection","features":[{"type":"Feature","properties":{"parent_code":"3522","parent_name":"Bojonegoro","code":"","name":"Ngambon","kind":"District"},"geometry":{"type":"Point","coordinates":[111.71580914400002,-7.325611515999974]},"id":null},{"type":"Feature","properties":{"parent_code":"3522","parent_name":"Bojonegoro","code":"","name":"Ngasem","kind":"District"},"geometry":{"type":"Point","coordinates":[111.75693880600005,-7.258124376499968]},"id":null},{"type":"Feature","properties":{"parent_code":"3522","parent_name":"Bojonegoro","code":"","name":"Ngraho","kind":"District"},"geometry":{"type":"Point","coordinates":[111.54042234400006,-7.255670798499967]},"id":null},{"type":"Feature","properties":{"parent_code":"3522","parent_name":"Bojonegoro","code":"","name":"Tambakrejo","kind":"District"},"geometry":{"type":"Point","coordinates":[111.63867242450004,-7.290728901499961]},"id":null},{"type":"Feature","properties":{"parent_code":"3522","parent_name":"Bojonegoro","code":"","name":"Sugihwaras","kind":"District"},"geometry":{"type":"Point","coordinates":[111.96150453350003,-7.334194258999958]},"id":null},{"type":"Feature","properties":{"parent_code":"3522","parent_name":"Bojonegoro","code":"","name":"Kedungadem","kind":"District"},"geometry":{"type":"Point","coordinates":[112.03367018200004,-7.323195445499948]},"id":null},{"type":"Feature","properties":{"parent_code":"3522","parent_name":"Bojonegoro","code":"","name":"Bubulan","kind":"District"},"geometry":{"type":"Point","coordinates":[111.83532065450007,-7.320956838499978]},"id":null},{"type":"Feature","properties":{"parent_code":"3522","parent_name":"Bojonegoro","code":"","name":"Dander","kind":"District"},"geometry":{"type":"Point","coordinates":[111.84539000000001,-7.224877880999941]},"id":null},{"type":"Feature","properties":{"parent_code":"3522","parent_name":"Bojonegoro","code":"","name":"Kepohbaru","kind":"District"},"geometry":{"type":"Point","coordinates":[112.09746283300007,-7.207265000499981]},"id":null},{"type":"Feature","properties":{"parent_code":"3522","parent_name":"Bojonegoro","code":"","name":"Baureno","kind":"District"},"geometry":{"type":"Point","coordinates":[112.10195741000007,-7.117031917499974]},"id":null},{"type":"Feature","properties":{"parent_code":"3522","parent_name":"Bojonegoro","code":"","name":"Kanor","kind":"District"},"geometry":{"type":"Point","coordinates":[112.03168310450008,-7.117369834999948]},"id":null},{"type":"Feature","properties":{"parent_code":"3522","parent_name":"Bojonegoro","code":"","name":"Kapas","kind":"District"},"geometry":{"type":"Point","coordinates":[111.90622973350006,-7.191160976499958]},"id":null},{"type":"Feature","properties":{"parent_code":"3522","parent_name":"Bojonegoro","code":"","name":"Bojonegoro","kind":"District"},"geometry":{"type":"Point","coordinates":[111.89363453800004,-7.158810972499964]},"id":null},{"type":"Feature","properties":{"parent_code":"3522","parent_name":"Bojonegoro","code":"","name":"Sumberejo","kind":"District"},"geometry":{"type":"Point","coordinates":[112.02687842400005,-7.212827204999981]},"id":null},{"type":"Feature","properties":{"parent_code":"3522","parent_name":"Bojonegoro","code":"","name":"Balen","kind":"District"},"geometry":{"type":"Point","coordinates":[111.96577250300004,-7.1901915074999465]},"id":null},{"type":"Feature","properties":{"parent_code":"3522","parent_name":"Bojonegoro","code":"","name":"Purwosari","kind":"District"},"geometry":{"type":"Point","coordinates":[111.66720423050006,-7.216803500999971]},"id":null},{"type":"Feature","properties":{"parent_code":"3522","parent_name":"Bojonegoro","code":"","name":"Padangan","kind":"District"},"geometry":{"type":"Point","coordinates":[111.61089512850006,-7.180779909499961]},"id":null},{"type":"Feature","properties":{"parent_code":"3522","parent_name":"Bojonegoro","code":"","name":"Kalitidu","kind":"District"},"geometry":{"type":"Point","coordinates":[111.78264021500004,-7.1524749994999866]},"id":null},{"type":"Feature","properties":{"parent_code":"3522","parent_name":"Bojonegoro","code":"","name":"Malo","kind":"District"},"geometry":{"type":"Point","coordinates":[111.71918279400006,-7.11559709149995]},"id":null},{"type":"Feature","properties":{"parent_code":"3522","parent_name":"Bojonegoro","code":"","name":"Temayang","kind":"District"},"geometry":{"type":"Point","coordinates":[111.92280978600004,-7.357371539999946]},"id":null},{"type":"Feature","properties":{"parent_code":"3522","parent_name":"Bojonegoro","code":"","name":"Margomulyo","kind":"District"},"geometry":{"type":"Point","coordinates":[111.49036727200003,-7.310161304499957]},"id":null},{"type":"Feature","properties":{"parent_code":"3522","parent_name":"Bojonegoro","code":"","name":"Kasiman","kind":"District"},"geometry":{"type":"Point","coordinates":[111.64093545700007,-7.113476539999962]},"id":null},{"type":"Feature","properties":{"parent_code":"3522","parent_name":"Bojonegoro","code":"","name":"Kedewan","kind":"District"},"geometry":{"type":"Point","coordinates":[111.65353625050005,-7.045543368499949]},"id":null},{"type":"Feature","properties":{"parent_code":"3522","parent_name":"Bojonegoro","code":"","name":"Gondang","kind":"District"},"geometry":{"type":"Point","coordinates":[111.83935508400003,-7.404155653999965]},"id":null},{"type":"Feature","properties":{"parent_code":"3522","parent_name":"Bojonegoro","code":"","name":"Trucuk","kind":"District"},"geometry":{"type":"Point","coordinates":[111.838291,-7.123567452499991]},"id":null},{"type":"Feature","properties":{"parent_code":"3522","parent_name":"Bojonegoro","code":"","name":"Sukosewu","kind":"District"},"geometry":{"type":"Point","coordinates":[111.93804648950007,-7.242025]},"id":null},{"type":"Feature","properties":{"parent_code":"3522","parent_name":"Bojonegoro","code":"","name":"Sekar","kind":"District"},"geometry":{"type":"Point","coordinates":[111.70616272250004,-7.407069859999988]},"id":null},{"type":"Feature","properties":{"parent_code":"3522","parent_name":"Bojonegoro","code":"","name":"Gayam","kind":"District"},"geometry":{"type":"Point","coordinates":[111.70212359000007,-7.175366261499979]},"id":null}]}