{"type":"FeatureCollection","features":[{"type":"Feature","properties":{"parent_code":"3525","parent_name":"Gresik","code":"","name":"Balongpanggang","kind":"District"},"geometry":{"type":"Point","coordinates":[112.42401328600002,-7.270354572999935]},"id":null},{"type":"Feature","properties":{"parent_code":"3525","parent_name":"Gresik","code":"","name":"Panceng","kind":"District"},"geometry":{"type":"Point","coordinates":[112.46454540950009,-6.9347253319999425]},"id":null},{"type":"Feature","properties":{"parent_code":"3525","parent_name":"Gresik","code":"","name":"Dukun","kind":"District"},"geometry":{"type":"Point","coordinates":[112.45267175700008,-6.986604156999931]},"id":null},{"type":"Feature","properties":{"parent_code":"3525","parent_name":"Gresik","code":"","name":"Wringinanom","kind":"District"},"geometry":{"type":"Point","coordinates":[112.52506140150001,-7.37081111949999]},"id":null},{"type":"Feature","properties":{"parent_code":"3525","parent_name":"Gresik","code":"","name":"Ujungpangkah","kind":"District"},"geometry":{"type":"Point","coordinates":[112.55060913550005,-6.9130618934999575]},"id":null},{"type":"Feature","properties":{"parent_code":"3525","parent_name":"Gresik","code":"","name":"Benjeng","kind":"District"},"geometry":{"type":"Point","coordinates":[112.48949067150005,-7.243556972999954]},"id":null},{"type":"Feature","properties":{"parent_code":"3525","parent_name":"Gresik","code":"","name":"Duduksampeyan","kind":"District"},"geometry":{"type":"Point","coordinates":[112.52489428250004,-7.150508994999967]},"id":null},{"type":"Feature","properties":{"parent_code":"3525","parent_name":"Gresik","code":"","name":"Kedamean","kind":"District"},"geometry":{"type":"Point","coordinates":[112.53443580950011,-7.314475000499965]},"id":null},{"type":"Feature","properties":{"parent_code":"3525","parent_name":"Gresik","code":"","name":"Sidayu","kind":"District"},"geometry":{"type":"Point","coordinates":[112.54680553150001,-6.982224262999978]},"id":null},{"type":"Feature","properties":{"parent_code":"3525","parent_name":"Gresik","code":"","name":"Menganti","kind":"District"},"geometry":{"type":"Point","coordinates":[112.58016742250004,-7.2694241529999815]},"id":null},{"type":"Feature","properties":{"parent_code":"3525","parent_name":"Gresik","code":"","name":"Kebomas","kind":"District"},"geometry":{"type":"Point","coordinates":[112.62685251100004,-7.178833309499964]},"id":null},{"type":"Feature","properties":{"parent_code":"3525","parent_name":"Gresik","code":"","name":"Cerme","kind":"District"},"geometry":{"type":"Point","coordinates":[112.55607773400004,-7.219721335999974]},"id":null},{"type":"Feature","properties":{"parent_code":"3525","parent_name":"Gresik","code":"","name":"Bungah","kind":"District"},"geometry":{"type":"Point","coordinates":[112.5746745940001,-7.022140776499953]},"id":null},{"type":"Feature","properties":{"parent_code":"3525","parent_name":"Gresik","code":"","name":"Sangkapura","kind":"District"},"geometry":{"type":"Point","coordinates":[112.67395706100007,-5.815354059999947]},"id":null},{"type":"Feature","properties":{"parent_code":"3525","parent_name":"Gresik","code":"","name":"Tambak","kind":"District"},"geometry":{"type":"Point","coordinates":[112.66023432400004,-5.756468114999933]},"id":null},{"type":"Feature","properties":{"parent_code":"3525","parent_name":"Gresik","code":"","name":"Driyorejo","kind":"District"},"geometry":{"type":"Point","coordinates":[112.61506749800004,-7.347854413999954]},"id":null},{"type":"Feature","properties":{"parent_code":"3525","parent_name":"Gresik","code":"","name":"Gresik","kind":"District"},"geometry":{"type":"Point","coordinates":[112.65174144350004,-7.161880147499943]},"id":null},{"type":"Feature","properties":{"parent_code":"3525","parent_name":"Gresik","code":"","name":"Manyar","kind":"District"},"geometry":{"type":"Point","coordinates":[112.59404742500004,-7.097846675999965]},"id":null}]}