{"type":"FeatureCollection","features":[{"type":"Feature","properties":{"parent_code":"6172","parent_name":"Kota Singkawang","code":"","name":"Singkawang Tengah","kind":"District"},"geometry":{"type":"Point","coordinates":[108.99814774850006,0.9123739265000665]},"id":null},{"type":"Feature","properties":{"parent_code":"6172","parent_name":"Kota Singkawang","code":"","name":"Singkawang Barat","kind":"District"},"geometry":{"type":"Point","coordinates":[108.97464318650006,0.904487134500073]},"id":null},{"type":"Feature","properties":{"parent_code":"6172","parent_name":"Kota Singkawang","code":"","name":"Singkawang Selatan","kind":"District"},"geometry":{"type":"Point","coordinates":[108.97513033150005,0.8241709250000615]},"id":null},{"type":"Feature","properties":{"parent_code":"6172","parent_name":"Kota Singkawang","code":"","name":"Singkawang Timur","kind":"District"},"geometry":{"type":"Point","coordinates":[109.08373291300006,0.927830863000054]},"id":null},{"type":"Feature","properties":{"parent_code":"6172","parent_name":"Kota Singkawang","code":"","name":"Singkawang Utara","kind":"District"},"geometry":{"type":"Point","coordinates":[109.02733332850008,0.9612262415000715]},"id":null}]}