{"type":"FeatureCollection","features":[{"type":"Feature","properties":{"parent_code":"5203","parent_name":"Lombok Timur","code":"","name":"Selong","kind":"District"},"geometry":{"type":"Point","coordinates":[116.53512049900007,-8.659192807999972]},"id":null},{"type":"Feature","properties":{"parent_code":"5203","parent_name":"Lombok Timur","code":"","name":"Pringgabaya","kind":"District"},"geometry":{"type":"Point","coordinates":[116.63626528850006,-8.510570709499945]},"id":null},{"type":"Feature","properties":{"parent_code":"5203","parent_name":"Lombok Timur","code":"","name":"Masbagik","kind":"District"},"geometry":{"type":"Point","coordinates":[116.46143653150006,-8.59053401999995]},"id":null},{"type":"Feature","properties":{"parent_code":"5203","parent_name":"Lombok Timur","code":"","name":"Sukamulia","kind":"District"},"geometry":{"type":"Point","coordinates":[116.49355909250005,-8.637740021999974]},"id":null},{"type":"Feature","properties":{"parent_code":"5203","parent_name":"Lombok Timur","code":"","name":"Aikmel","kind":"District"},"geometry":{"type":"Point","coordinates":[116.51760814400006,-8.512222820999966]},"id":null},{"type":"Feature","properties":{"parent_code":"5203","parent_name":"Lombok Timur","code":"","name":"Terara","kind":"District"},"geometry":{"type":"Point","coordinates":[116.41257025350006,-8.643362381999964]},"id":null},{"type":"Feature","properties":{"parent_code":"5203","parent_name":"Lombok Timur","code":"","name":"Sikur","kind":"District"},"geometry":{"type":"Point","coordinates":[116.43670100350005,-8.554707525999959]},"id":null},{"type":"Feature","properties":{"parent_code":"5203","parent_name":"Lombok Timur","code":"","name":"Keruak","kind":"District"},"geometry":{"type":"Point","coordinates":[116.48675203700003,-8.774298486999953]},"id":null},{"type":"Feature","properties":{"parent_code":"5203","parent_name":"Lombok Timur","code":"","name":"Sakra","kind":"District"},"geometry":{"type":"Point","coordinates":[116.47061237450004,-8.678919981999968]},"id":null},{"type":"Feature","properties":{"parent_code":"5203","parent_name":"Lombok Timur","code":"","name":"Sakra Timur","kind":"District"},"geometry":{"type":"Point","coordinates":[116.52263604850009,-8.717778111999934]},"id":null},{"type":"Feature","properties":{"parent_code":"5203","parent_name":"Lombok Timur","code":"","name":"Sakra Barat","kind":"District"},"geometry":{"type":"Point","coordinates":[116.47857900300005,-8.724412020499955]},"id":null},{"type":"Feature","properties":{"parent_code":"5203","parent_name":"Lombok Timur","code":"","name":"Suwela","kind":"District"},"geometry":{"type":"Point","coordinates":[116.58512223700006,-8.486675844499928]},"id":null},{"type":"Feature","properties":{"parent_code":"5203","parent_name":"Lombok Timur","code":"","name":"Labuhan Haji","kind":"District"},"geometry":{"type":"Point","coordinates":[116.58322900000007,-8.657874962499932]},"id":null},{"type":"Feature","properties":{"parent_code":"5203","parent_name":"Lombok Timur","code":"","name":"Sambelia","kind":"District"},"geometry":{"type":"Point","coordinates":[116.62596064150006,-8.352184508999954]},"id":null},{"type":"Feature","properties":{"parent_code":"5203","parent_name":"Lombok Timur","code":"","name":"Montong Gading","kind":"District"},"geometry":{"type":"Point","coordinates":[116.40116521400006,-8.545761369499957]},"id":null},{"type":"Feature","properties":{"parent_code":"5203","parent_name":"Lombok Timur","code":"","name":"Wanasaba","kind":"District"},"geometry":{"type":"Point","coordinates":[116.54411649800005,-8.524368825499977]},"id":null},{"type":"Feature","properties":{"parent_code":"5203","parent_name":"Lombok Timur","code":"","name":"Sembalun","kind":"District"},"geometry":{"type":"Point","coordinates":[116.49163066250003,-8.347724471999953]},"id":null},{"type":"Feature","properties":{"parent_code":"5203","parent_name":"Lombok Timur","code":"","name":"Pringgasela","kind":"District"},"geometry":{"type":"Point","coordinates":[116.46018880350005,-8.522654531499967]},"id":null},{"type":"Feature","properties":{"parent_code":"5203","parent_name":"Lombok Timur","code":"","name":"Suralaga","kind":"District"},"geometry":{"type":"Point","coordinates":[116.54251278400005,-8.614976867499962]},"id":null},{"type":"Feature","properties":{"parent_code":"5203","parent_name":"Lombok Timur","code":"","name":"Lenek","kind":"District"},"geometry":{"type":"Point","coordinates":[116.50962715500009,-8.521679548999941]},"id":null},{"type":"Feature","properties":{"parent_code":"5203","parent_name":"Lombok Timur","code":"","name":"Jerowaru","kind":"District"},"geometry":{"type":"Point","coordinates":[116.49528372300011,-8.846381783499965]},"id":null}]}