{"type":"FeatureCollection","features":[{"type":"Feature","properties":{"parent_code":"5206","parent_name":"Bima","code":"","name":"Donggo","kind":"District"},"geometry":{"type":"Point","coordinates":[118.5599739320001,-8.420933364999968]},"id":null},{"type":"Feature","properties":{"parent_code":"5206","parent_name":"Bima","code":"","name":"Sanggar","kind":"District"},"geometry":{"type":"Point","coordinates":[118.19419673000004,-8.32380770699993]},"id":null},{"type":"Feature","properties":{"parent_code":"5206","parent_name":"Bima","code":"","name":"Bolo","kind":"District"},"geometry":{"type":"Point","coordinates":[118.62117420850007,-8.505791986499958]},"id":null},{"type":"Feature","properties":{"parent_code":"5206","parent_name":"Bima","code":"","name":"Woha","kind":"District"},"geometry":{"type":"Point","coordinates":[118.64809241750004,-8.608746025499954]},"id":null},{"type":"Feature","properties":{"parent_code":"5206","parent_name":"Bima","code":"","name":"Monta","kind":"District"},"geometry":{"type":"Point","coordinates":[118.66789605950004,-8.711902273999954]},"id":null},{"type":"Feature","properties":{"parent_code":"5206","parent_name":"Bima","code":"","name":"Sape","kind":"District"},"geometry":{"type":"Point","coordinates":[119.10294590650005,-8.505787956499944]},"id":null},{"type":"Feature","properties":{"parent_code":"5206","parent_name":"Bima","code":"","name":"Wera","kind":"District"},"geometry":{"type":"Point","coordinates":[118.98975093900003,-8.308528749499942]},"id":null},{"type":"Feature","properties":{"parent_code":"5206","parent_name":"Bima","code":"","name":"Belo","kind":"District"},"geometry":{"type":"Point","coordinates":[118.7414557670001,-8.618101646999946]},"id":null},{"type":"Feature","properties":{"parent_code":"5206","parent_name":"Bima","code":"","name":"Wawo","kind":"District"},"geometry":{"type":"Point","coordinates":[118.85967793250006,-8.567345729999971]},"id":null},{"type":"Feature","properties":{"parent_code":"5206","parent_name":"Bima","code":"","name":"Ambalawi","kind":"District"},"geometry":{"type":"Point","coordinates":[118.80220142950003,-8.35998454099996]},"id":null},{"type":"Feature","properties":{"parent_code":"5206","parent_name":"Bima","code":"","name":"Madapangga","kind":"District"},"geometry":{"type":"Point","coordinates":[118.56031590550009,-8.602244862999953]},"id":null},{"type":"Feature","properties":{"parent_code":"5206","parent_name":"Bima","code":"","name":"Tambora","kind":"District"},"geometry":{"type":"Point","coordinates":[117.95996161600004,-8.215452069999941]},"id":null},{"type":"Feature","properties":{"parent_code":"5206","parent_name":"Bima","code":"","name":"Langgudu","kind":"District"},"geometry":{"type":"Point","coordinates":[118.83804252700003,-8.731973353999962]},"id":null},{"type":"Feature","properties":{"parent_code":"5206","parent_name":"Bima","code":"","name":"Lambu","kind":"District"},"geometry":{"type":"Point","coordinates":[119.05772896900004,-8.644929417499952]},"id":null},{"type":"Feature","properties":{"parent_code":"5206","parent_name":"Bima","code":"","name":"Lambitu","kind":"District"},"geometry":{"type":"Point","coordinates":[118.78642582650008,-8.57642144999997]},"id":null},{"type":"Feature","properties":{"parent_code":"5206","parent_name":"Bima","code":"","name":"Palibelo","kind":"District"},"geometry":{"type":"Point","coordinates":[118.73823915600008,-8.538152164999957]},"id":null},{"type":"Feature","properties":{"parent_code":"5206","parent_name":"Bima","code":"","name":"Soromandi","kind":"District"},"geometry":{"type":"Point","coordinates":[118.57169874300007,-8.363184295499934]},"id":null},{"type":"Feature","properties":{"parent_code":"5206","parent_name":"Bima","code":"","name":"Parado","kind":"District"},"geometry":{"type":"Point","coordinates":[118.55383032500009,-8.792742682999943]},"id":null}]}