{"type":"FeatureCollection","features":[{"type":"Feature","properties":{"parent_code":"5272","parent_name":"Kota Bima","code":"","name":"Asakota","kind":"District"},"geometry":{"type":"Point","coordinates":[118.75385746700005,-8.39661637149996]},"id":null},{"type":"Feature","properties":{"parent_code":"5272","parent_name":"Kota Bima","code":"","name":"Raba","kind":"District"},"geometry":{"type":"Point","coordinates":[118.80517693800005,-8.466346701499958]},"id":null},{"type":"Feature","properties":{"parent_code":"5272","parent_name":"Kota Bima","code":"","name":"Rasanae Barat","kind":"District"},"geometry":{"type":"Point","coordinates":[118.71821643200008,-8.473627775999944]},"id":null},{"type":"Feature","properties":{"parent_code":"5272","parent_name":"Kota Bima","code":"","name":"Rasanae Timur","kind":"District"},"geometry":{"type":"Point","coordinates":[118.82573128000001,-8.490594714999958]},"id":null},{"type":"Feature","properties":{"parent_code":"5272","parent_name":"Kota Bima","code":"","name":"Mpunda","kind":"District"},"geometry":{"type":"Point","coordinates":[118.75858392600003,-8.468544652999952]},"id":null}]}