{"type":"FeatureCollection","features":[{"type":"Feature","properties":{"parent_code":"1801","parent_name":"Lampung Selatan","code":"","name":"Way Sulan","kind":"District"},"geometry":{"type":"Point","coordinates":[105.54752775000006,-5.481033312499932]},"id":null},{"type":"Feature","properties":{"parent_code":"1801","parent_name":"Lampung Selatan","code":"","name":"Way Panji","kind":"District"},"geometry":{"type":"Point","coordinates":[105.60376421050006,-5.600480599499946]},"id":null},{"type":"Feature","properties":{"parent_code":"1801","parent_name":"Lampung Selatan","code":"","name":"Penengahan","kind":"District"},"geometry":{"type":"Point","coordinates":[105.68581810600006,-5.74269865149995]},"id":null},{"type":"Feature","properties":{"parent_code":"1801","parent_name":"Lampung Selatan","code":"","name":"Natar","kind":"District"},"geometry":{"type":"Point","coordinates":[105.23107670700006,-5.272410317499947]},"id":null},{"type":"Feature","properties":{"parent_code":"1801","parent_name":"Lampung Selatan","code":"","name":"Sidomulyo","kind":"District"},"geometry":{"type":"Point","coordinates":[105.50696829350005,-5.599792707999967]},"id":null},{"type":"Feature","properties":{"parent_code":"1801","parent_name":"Lampung Selatan","code":"","name":"Katibung","kind":"District"},"geometry":{"type":"Point","coordinates":[105.43487761750006,-5.546190077499972]},"id":null},{"type":"Feature","properties":{"parent_code":"1801","parent_name":"Lampung Selatan","code":"","name":"Tanjung Bintang","kind":"District"},"geometry":{"type":"Point","coordinates":[105.40491667400005,-5.388756568499957]},"id":null},{"type":"Feature","properties":{"parent_code":"1801","parent_name":"Lampung Selatan","code":"","name":"Kalianda","kind":"District"},"geometry":{"type":"Point","coordinates":[105.57679759400006,-5.692718825999975]},"id":null},{"type":"Feature","properties":{"parent_code":"1801","parent_name":"Lampung Selatan","code":"","name":"Palas","kind":"District"},"geometry":{"type":"Point","coordinates":[105.67543155850007,-5.6315540384999565]},"id":null},{"type":"Feature","properties":{"parent_code":"1801","parent_name":"Lampung Selatan","code":"","name":"Ketapang","kind":"District"},"geometry":{"type":"Point","coordinates":[105.77847003950006,-5.7472134664999714]},"id":null},{"type":"Feature","properties":{"parent_code":"1801","parent_name":"Lampung Selatan","code":"","name":"Sragi","kind":"District"},"geometry":{"type":"Point","coordinates":[105.76261564750004,-5.64289980749993]},"id":null},{"type":"Feature","properties":{"parent_code":"1801","parent_name":"Lampung Selatan","code":"","name":"Jati Agung","kind":"District"},"geometry":{"type":"Point","coordinates":[105.36050316300006,-5.28764142199995]},"id":null},{"type":"Feature","properties":{"parent_code":"1801","parent_name":"Lampung Selatan","code":"","name":"Merbau Mataram","kind":"District"},"geometry":{"type":"Point","coordinates":[105.42930481750005,-5.458124766499964]},"id":null},{"type":"Feature","properties":{"parent_code":"1801","parent_name":"Lampung Selatan","code":"","name":"Raja Basa","kind":"District"},"geometry":{"type":"Point","coordinates":[105.52153170350007,-5.968848342999962]},"id":null},{"type":"Feature","properties":{"parent_code":"1801","parent_name":"Lampung Selatan","code":"","name":"Candipuro","kind":"District"},"geometry":{"type":"Point","coordinates":[105.57177659900006,-5.530265143499946]},"id":null},{"type":"Feature","properties":{"parent_code":"1801","parent_name":"Lampung Selatan","code":"","name":"Bakauheni","kind":"District"},"geometry":{"type":"Point","coordinates":[105.73005179950005,-5.847847878999943]},"id":null},{"type":"Feature","properties":{"parent_code":"1801","parent_name":"Lampung Selatan","code":"","name":"Tanjung Sari","kind":"District"},"geometry":{"type":"Point","coordinates":[105.47722491750005,-5.343760464999946]},"id":null}]}