{"type":"FeatureCollection","features":[{"type":"Feature","properties":{"parent_code":"1802","parent_name":"Lampung Tengah","code":"","name":"Kalirejo","kind":"District"},"geometry":{"type":"Point","coordinates":[104.98458727650004,-5.213919118999939]},"id":null},{"type":"Feature","properties":{"parent_code":"1802","parent_name":"Lampung Tengah","code":"","name":"Gunung Sugih","kind":"District"},"geometry":{"type":"Point","coordinates":[105.20934782650005,-4.971557108999946]},"id":null},{"type":"Feature","properties":{"parent_code":"1802","parent_name":"Lampung Tengah","code":"","name":"Trimurjo","kind":"District"},"geometry":{"type":"Point","coordinates":[105.25694983500006,-5.111170894999958]},"id":null},{"type":"Feature","properties":{"parent_code":"1802","parent_name":"Lampung Tengah","code":"","name":"Bangun Rejo","kind":"District"},"geometry":{"type":"Point","coordinates":[105.02543113450008,-5.117602069999947]},"id":null},{"type":"Feature","properties":{"parent_code":"1802","parent_name":"Lampung Tengah","code":"","name":"Padang Ratu","kind":"District"},"geometry":{"type":"Point","coordinates":[104.96337431150005,-5.0689345509999555]},"id":null},{"type":"Feature","properties":{"parent_code":"1802","parent_name":"Lampung Tengah","code":"","name":"Seputih Raman","kind":"District"},"geometry":{"type":"Point","coordinates":[105.36893356750005,-4.891177547999945]},"id":null},{"type":"Feature","properties":{"parent_code":"1802","parent_name":"Lampung Tengah","code":"","name":"Rumbia","kind":"District"},"geometry":{"type":"Point","coordinates":[105.57088312450006,-4.76426161699996]},"id":null},{"type":"Feature","properties":{"parent_code":"1802","parent_name":"Lampung Tengah","code":"","name":"Punggur","kind":"District"},"geometry":{"type":"Point","coordinates":[105.28683318550006,-5.03197229099996]},"id":null},{"type":"Feature","properties":{"parent_code":"1802","parent_name":"Lampung Tengah","code":"","name":"Terbanggi Besar","kind":"District"},"geometry":{"type":"Point","coordinates":[105.23224409900007,-4.89231167899996]},"id":null},{"type":"Feature","properties":{"parent_code":"1802","parent_name":"Lampung Tengah","code":"","name":"Seputih Mataram","kind":"District"},"geometry":{"type":"Point","coordinates":[105.35521869350006,-4.801233698499942]},"id":null},{"type":"Feature","properties":{"parent_code":"1802","parent_name":"Lampung Tengah","code":"","name":"Seputih Surabaya","kind":"District"},"geometry":{"type":"Point","coordinates":[105.63639372100005,-4.677913851499937]},"id":null},{"type":"Feature","properties":{"parent_code":"1802","parent_name":"Lampung Tengah","code":"","name":"Seputih Banyak","kind":"District"},"geometry":{"type":"Point","coordinates":[105.48224387250005,-4.83732722299996]},"id":null},{"type":"Feature","properties":{"parent_code":"1802","parent_name":"Lampung Tengah","code":"","name":"Bekri","kind":"District"},"geometry":{"type":"Point","coordinates":[105.13398237550007,-5.095205092999947]},"id":null},{"type":"Feature","properties":{"parent_code":"1802","parent_name":"Lampung Tengah","code":"","name":"Seputih Agung","kind":"District"},"geometry":{"type":"Point","coordinates":[105.12896825550007,-4.943262020999953]},"id":null},{"type":"Feature","properties":{"parent_code":"1802","parent_name":"Lampung Tengah","code":"","name":"Terusan Nunyai","kind":"District"},"geometry":{"type":"Point","coordinates":[105.21246106150005,-4.696355149499965]},"id":null},{"type":"Feature","properties":{"parent_code":"1802","parent_name":"Lampung Tengah","code":"","name":"Bumi Ratu Nuban","kind":"District"},"geometry":{"type":"Point","coordinates":[105.20677582200008,-5.092050074999946]},"id":null},{"type":"Feature","properties":{"parent_code":"1802","parent_name":"Lampung Tengah","code":"","name":"Pubian","kind":"District"},"geometry":{"type":"Point","coordinates":[104.84257953350004,-5.087401369999952]},"id":null},{"type":"Feature","properties":{"parent_code":"1802","parent_name":"Lampung Tengah","code":"","name":"Way Pangubuan","kind":"District"},"geometry":{"type":"Point","coordinates":[105.19062657450007,-4.856186289499931]},"id":null},{"type":"Feature","properties":{"parent_code":"1802","parent_name":"Lampung Tengah","code":"","name":"Bandar Mataram","kind":"District"},"geometry":{"type":"Point","coordinates":[105.54928120450006,-4.636750338499951]},"id":null},{"type":"Feature","properties":{"parent_code":"1802","parent_name":"Lampung Tengah","code":"","name":"Sendang Agung","kind":"District"},"geometry":{"type":"Point","coordinates":[104.87238467400007,-5.186810828999938]},"id":null},{"type":"Feature","properties":{"parent_code":"1802","parent_name":"Lampung Tengah","code":"","name":"Kota Gajah","kind":"District"},"geometry":{"type":"Point","coordinates":[105.32326954750008,-5.0003863884999475]},"id":null},{"type":"Feature","properties":{"parent_code":"1802","parent_name":"Lampung Tengah","code":"","name":"Selagai Lingga","kind":"District"},"geometry":{"type":"Point","coordinates":[104.72470988400008,-5.065925861499949]},"id":null},{"type":"Feature","properties":{"parent_code":"1802","parent_name":"Lampung Tengah","code":"","name":"Anak Tuha","kind":"District"},"geometry":{"type":"Point","coordinates":[105.05939905300005,-5.017715554999938]},"id":null},{"type":"Feature","properties":{"parent_code":"1802","parent_name":"Lampung Tengah","code":"","name":"Bandar Surabaya","kind":"District"},"geometry":{"type":"Point","coordinates":[105.74973241200004,-4.694201155999963]},"id":null},{"type":"Feature","properties":{"parent_code":"1802","parent_name":"Lampung Tengah","code":"","name":"Anak Ratu Aji","kind":"District"},"geometry":{"type":"Point","coordinates":[104.95058442500005,-4.956419059999945]},"id":null},{"type":"Feature","properties":{"parent_code":"1802","parent_name":"Lampung Tengah","code":"","name":"Bumi Nabung","kind":"District"},"geometry":{"type":"Point","coordinates":[105.55017424700006,-4.679609180499966]},"id":null},{"type":"Feature","properties":{"parent_code":"1802","parent_name":"Lampung Tengah","code":"","name":"Way Seputih","kind":"District"},"geometry":{"type":"Point","coordinates":[105.44948088350006,-4.79339080799997]},"id":null},{"type":"Feature","properties":{"parent_code":"1802","parent_name":"Lampung Tengah","code":"","name":"Putra Rumbia","kind":"District"},"geometry":{"type":"Point","coordinates":[105.71728559700006,-4.853395344999939]},"id":null}]}