{"type":"FeatureCollection","features":[{"type":"Feature","properties":{"parent_code":"1803","parent_name":"Lampung Utara","code":"","name":"Bukit Kemuning","kind":"District"},"geometry":{"type":"Point","coordinates":[104.55850250450007,-4.924990405499955]},"id":null},{"type":"Feature","properties":{"parent_code":"1803","parent_name":"Lampung Utara","code":"","name":"Kotabumi","kind":"District"},"geometry":{"type":"Point","coordinates":[104.84784349450004,-4.828534976499952]},"id":null},{"type":"Feature","properties":{"parent_code":"1803","parent_name":"Lampung Utara","code":"","name":"Abung Timur","kind":"District"},"geometry":{"type":"Point","coordinates":[104.98420920400005,-4.746387578999958]},"id":null},{"type":"Feature","properties":{"parent_code":"1803","parent_name":"Lampung Utara","code":"","name":"Abung Barat","kind":"District"},"geometry":{"type":"Point","coordinates":[104.71150671450005,-4.851492273499957]},"id":null},{"type":"Feature","properties":{"parent_code":"1803","parent_name":"Lampung Utara","code":"","name":"Sungkai Selatan","kind":"District"},"geometry":{"type":"Point","coordinates":[104.79307963800005,-4.706843251499947]},"id":null},{"type":"Feature","properties":{"parent_code":"1803","parent_name":"Lampung Utara","code":"","name":"Tanjung Raja","kind":"District"},"geometry":{"type":"Point","coordinates":[104.64526453650006,-4.976344248499942]},"id":null},{"type":"Feature","properties":{"parent_code":"1803","parent_name":"Lampung Utara","code":"","name":"Kotabumi Utara","kind":"District"},"geometry":{"type":"Point","coordinates":[104.86469726400006,-4.744611298999956]},"id":null},{"type":"Feature","properties":{"parent_code":"1803","parent_name":"Lampung Utara","code":"","name":"Abung Selatan","kind":"District"},"geometry":{"type":"Point","coordinates":[104.91931712900006,-4.899476256999975]},"id":null},{"type":"Feature","properties":{"parent_code":"1803","parent_name":"Lampung Utara","code":"","name":"Sungkai Utara","kind":"District"},"geometry":{"type":"Point","coordinates":[104.75474312150004,-4.618269765499946]},"id":null},{"type":"Feature","properties":{"parent_code":"1803","parent_name":"Lampung Utara","code":"","name":"Abung Tinggi","kind":"District"},"geometry":{"type":"Point","coordinates":[104.61491924450007,-4.877107916499938]},"id":null},{"type":"Feature","properties":{"parent_code":"1803","parent_name":"Lampung Utara","code":"","name":"Abung Semuli","kind":"District"},"geometry":{"type":"Point","coordinates":[105.05110555500005,-4.802234114499953]},"id":null},{"type":"Feature","properties":{"parent_code":"1803","parent_name":"Lampung Utara","code":"","name":"Kotabumi Selatan","kind":"District"},"geometry":{"type":"Point","coordinates":[104.87471677250008,-4.90127297549995]},"id":null},{"type":"Feature","properties":{"parent_code":"1803","parent_name":"Lampung Utara","code":"","name":"Abung Tengah","kind":"District"},"geometry":{"type":"Point","coordinates":[104.75017518850007,-4.938928243999953]},"id":null},{"type":"Feature","properties":{"parent_code":"1803","parent_name":"Lampung Utara","code":"","name":"Bunga Mayang","kind":"District"},"geometry":{"type":"Point","coordinates":[104.88066865350007,-4.595031476999964]},"id":null},{"type":"Feature","properties":{"parent_code":"1803","parent_name":"Lampung Utara","code":"","name":"Hulu Sungkai","kind":"District"},"geometry":{"type":"Point","coordinates":[104.67304346000006,-4.649004259999941]},"id":null},{"type":"Feature","properties":{"parent_code":"1803","parent_name":"Lampung Utara","code":"","name":"Abung Surakarta","kind":"District"},"geometry":{"type":"Point","coordinates":[105.01940301800005,-4.709918669499956]},"id":null},{"type":"Feature","properties":{"parent_code":"1803","parent_name":"Lampung Utara","code":"","name":"Muara Sungkai","kind":"District"},"geometry":{"type":"Point","coordinates":[104.95526079700005,-4.608461154499963]},"id":null},{"type":"Feature","properties":{"parent_code":"1803","parent_name":"Lampung Utara","code":"","name":"Sungkai Tengah","kind":"District"},"geometry":{"type":"Point","coordinates":[104.70932823850006,-4.718734377999965]},"id":null},{"type":"Feature","properties":{"parent_code":"1803","parent_name":"Lampung Utara","code":"","name":"Abung Pekurun","kind":"District"},"geometry":{"type":"Point","coordinates":[104.72500768400005,-4.998492558499976]},"id":null},{"type":"Feature","properties":{"parent_code":"1803","parent_name":"Lampung Utara","code":"","name":"Sungkai Jaya","kind":"District"},"geometry":{"type":"Point","coordinates":[104.75756859250006,-4.802705703999948]},"id":null},{"type":"Feature","properties":{"parent_code":"1803","parent_name":"Lampung Utara","code":"","name":"Blambangan Pagar","kind":"District"},"geometry":{"type":"Point","coordinates":[105.01583858600006,-4.8728504529999555]},"id":null},{"type":"Feature","properties":{"parent_code":"1803","parent_name":"Lampung Utara","code":"","name":"Sungkai Barat","kind":"District"},"geometry":{"type":"Point","coordinates":[104.68228540100009,-4.787724992999955]},"id":null},{"type":"Feature","properties":{"parent_code":"1803","parent_name":"Lampung Utara","code":"","name":"Abung Kunang","kind":"District"},"geometry":{"type":"Point","coordinates":[104.81333021050006,-4.894032413499957]},"id":null}]}