{"type":"FeatureCollection","features":[{"type":"Feature","properties":{"parent_code":"1202","parent_name":"Tapanuli Utara","code":"","name":"Siatas Barita","kind":"District"},"geometry":{"type":"Point","coordinates":[99.04054995400006,2.0087630435000676]},"id":null},{"type":"Feature","properties":{"parent_code":"1202","parent_name":"Tapanuli Utara","code":"","name":"Adian Koting","kind":"District"},"geometry":{"type":"Point","coordinates":[98.89790084650005,1.8696547855000465]},"id":null},{"type":"Feature","properties":{"parent_code":"1202","parent_name":"Tapanuli Utara","code":"","name":"Tarutung","kind":"District"},"geometry":{"type":"Point","coordinates":[98.98239199000008,2.026206901500046]},"id":null},{"type":"Feature","properties":{"parent_code":"1202","parent_name":"Tapanuli Utara","code":"","name":"Pahae Jae","kind":"District"},"geometry":{"type":"Point","coordinates":[99.09666844250006,1.8231217370000365]},"id":null},{"type":"Feature","properties":{"parent_code":"1202","parent_name":"Tapanuli Utara","code":"","name":"Simangumban","kind":"District"},"geometry":{"type":"Point","coordinates":[99.20933954750004,1.7685734310000496]},"id":null},{"type":"Feature","properties":{"parent_code":"1202","parent_name":"Tapanuli Utara","code":"","name":"Sipoholon","kind":"District"},"geometry":{"type":"Point","coordinates":[98.91489006350005,2.082899562500046]},"id":null},{"type":"Feature","properties":{"parent_code":"1202","parent_name":"Tapanuli Utara","code":"","name":"Pahae Julu","kind":"District"},"geometry":{"type":"Point","coordinates":[99.05888429250007,1.877770458000043]},"id":null},{"type":"Feature","properties":{"parent_code":"1202","parent_name":"Tapanuli Utara","code":"","name":"Purba Tua","kind":"District"},"geometry":{"type":"Point","coordinates":[99.06476638300006,1.7199638920000666]},"id":null},{"type":"Feature","properties":{"parent_code":"1202","parent_name":"Tapanuli Utara","code":"","name":"Siborong-Borong","kind":"District"},"geometry":{"type":"Point","coordinates":[99.05760004800004,2.2070281080000314]},"id":null},{"type":"Feature","properties":{"parent_code":"1202","parent_name":"Tapanuli Utara","code":"","name":"Pangaribuan","kind":"District"},"geometry":{"type":"Point","coordinates":[99.21068239900006,1.9693366870000375]},"id":null},{"type":"Feature","properties":{"parent_code":"1202","parent_name":"Tapanuli Utara","code":"","name":"Garoga","kind":"District"},"geometry":{"type":"Point","coordinates":[99.35550473800006,2.028961955000057]},"id":null},{"type":"Feature","properties":{"parent_code":"1202","parent_name":"Tapanuli Utara","code":"","name":"Parmonangan","kind":"District"},"geometry":{"type":"Point","coordinates":[98.78481365000005,2.0552984015000675]},"id":null},{"type":"Feature","properties":{"parent_code":"1202","parent_name":"Tapanuli Utara","code":"","name":"Sipahutar","kind":"District"},"geometry":{"type":"Point","coordinates":[99.14036283350006,2.1458825105000305]},"id":null},{"type":"Feature","properties":{"parent_code":"1202","parent_name":"Tapanuli Utara","code":"","name":"Muara","kind":"District"},"geometry":{"type":"Point","coordinates":[98.92205297100006,2.336508183500058]},"id":null},{"type":"Feature","properties":{"parent_code":"1202","parent_name":"Tapanuli Utara","code":"","name":"Pagaran","kind":"District"},"geometry":{"type":"Point","coordinates":[98.87950238400006,2.186277237500036]},"id":null}]}