{"type":"FeatureCollection","features":[{"type":"Feature","properties":{"parent_code":"1275","parent_name":"Kota Binjai","code":"","name":"Binjai Kota","kind":"District"},"geometry":{"type":"Point","coordinates":[98.47624313050008,3.6028213000000444]},"id":null},{"type":"Feature","properties":{"parent_code":"1275","parent_name":"Kota Binjai","code":"","name":"Binjai Barat","kind":"District"},"geometry":{"type":"Point","coordinates":[98.46638919400004,3.62597431100005]},"id":null},{"type":"Feature","properties":{"parent_code":"1275","parent_name":"Kota Binjai","code":"","name":"Binjai Utara","kind":"District"},"geometry":{"type":"Point","coordinates":[98.49503807600007,3.6408329785000433]},"id":null},{"type":"Feature","properties":{"parent_code":"1275","parent_name":"Kota Binjai","code":"","name":"Binjai Timur","kind":"District"},"geometry":{"type":"Point","coordinates":[98.51421865950005,3.6008245500000555]},"id":null},{"type":"Feature","properties":{"parent_code":"1275","parent_name":"Kota Binjai","code":"","name":"Binjai Selatan","kind":"District"},"geometry":{"type":"Point","coordinates":[98.47255826950007,3.565762251000052]},"id":null}]}