{"type":"FeatureCollection","features":[{"type":"Feature","properties":{"parent_code":"1602","parent_name":"Ogan Komering Ilir","code":"","name":"Tanjung Lubuk","kind":"District"},"geometry":{"type":"Point","coordinates":[104.70311686500006,-3.575948346499956]},"id":null},{"type":"Feature","properties":{"parent_code":"1602","parent_name":"Ogan Komering Ilir","code":"","name":"Pedamaran","kind":"District"},"geometry":{"type":"Point","coordinates":[104.92970788250005,-3.497419509499963]},"id":null},{"type":"Feature","properties":{"parent_code":"1602","parent_name":"Ogan Komering Ilir","code":"","name":"Mesuji","kind":"District"},"geometry":{"type":"Point","coordinates":[105.14225714500006,-3.950643939999935]},"id":null},{"type":"Feature","properties":{"parent_code":"1602","parent_name":"Ogan Komering Ilir","code":"","name":"Kayu Agung","kind":"District"},"geometry":{"type":"Point","coordinates":[104.89767094750007,-3.3944126174999836]},"id":null},{"type":"Feature","properties":{"parent_code":"1602","parent_name":"Ogan Komering Ilir","code":"","name":"Sirah Pulau Padang","kind":"District"},"geometry":{"type":"Point","coordinates":[104.87424113600005,-3.273171874499951]},"id":null},{"type":"Feature","properties":{"parent_code":"1602","parent_name":"Ogan Komering Ilir","code":"","name":"Lempuing","kind":"District"},"geometry":{"type":"Point","coordinates":[104.94904285600003,-3.9067659164999498]},"id":null},{"type":"Feature","properties":{"parent_code":"1602","parent_name":"Ogan Komering Ilir","code":"","name":"Air Sugihan","kind":"District"},"geometry":{"type":"Point","coordinates":[105.47620470650006,-2.6074678889999636]},"id":null},{"type":"Feature","properties":{"parent_code":"1602","parent_name":"Ogan Komering Ilir","code":"","name":"Tulung Selapan","kind":"District"},"geometry":{"type":"Point","coordinates":[105.70605164450006,-3.0517408534999504]},"id":null},{"type":"Feature","properties":{"parent_code":"1602","parent_name":"Ogan Komering Ilir","code":"","name":"Pampangan","kind":"District"},"geometry":{"type":"Point","coordinates":[105.03731305600004,-3.3176737049999474]},"id":null},{"type":"Feature","properties":{"parent_code":"1602","parent_name":"Ogan Komering Ilir","code":"","name":"Jejawi","kind":"District"},"geometry":{"type":"Point","coordinates":[104.87633655650006,-3.17447300849997]},"id":null},{"type":"Feature","properties":{"parent_code":"1602","parent_name":"Ogan Komering Ilir","code":"","name":"Cengal","kind":"District"},"geometry":{"type":"Point","coordinates":[105.55219388550006,-3.541718832999948]},"id":null},{"type":"Feature","properties":{"parent_code":"1602","parent_name":"Ogan Komering Ilir","code":"","name":"Sungai Menang","kind":"District"},"geometry":{"type":"Point","coordinates":[105.59008971050005,-3.873457037999941]},"id":null},{"type":"Feature","properties":{"parent_code":"1602","parent_name":"Ogan Komering Ilir","code":"","name":"Pangkalan Lampam","kind":"District"},"geometry":{"type":"Point","coordinates":[105.24786877750003,-3.1504073709999716]},"id":null},{"type":"Feature","properties":{"parent_code":"1602","parent_name":"Ogan Komering Ilir","code":"","name":"Mesuji Makmur","kind":"District"},"geometry":{"type":"Point","coordinates":[104.87900924850004,-4.131947223999984]},"id":null},{"type":"Feature","properties":{"parent_code":"1602","parent_name":"Ogan Komering Ilir","code":"","name":"Mesuji Raya","kind":"District"},"geometry":{"type":"Point","coordinates":[105.11391293250006,-3.7595507509999777]},"id":null},{"type":"Feature","properties":{"parent_code":"1602","parent_name":"Ogan Komering Ilir","code":"","name":"Pedamaran Timur","kind":"District"},"geometry":{"type":"Point","coordinates":[105.13878756950007,-3.5260257324999316]},"id":null},{"type":"Feature","properties":{"parent_code":"1602","parent_name":"Ogan Komering Ilir","code":"","name":"Lempuing Jaya","kind":"District"},"geometry":{"type":"Point","coordinates":[104.90437559250006,-3.6816153894999673]},"id":null},{"type":"Feature","properties":{"parent_code":"1602","parent_name":"Ogan Komering Ilir","code":"","name":"Teluk Gelam","kind":"District"},"geometry":{"type":"Point","coordinates":[104.78665825450008,-3.590559207999945]},"id":null}]}