{"type":"FeatureCollection","features":[{"type":"Feature","properties":{"parent_code":"1671","parent_name":"Kota Palembang","code":"","name":"Ilir Timur Dua","kind":"District"},"geometry":{"type":"Point","coordinates":[104.79734728050008,-2.968663451499964]},"id":null},{"type":"Feature","properties":{"parent_code":"1671","parent_name":"Kota Palembang","code":"","name":"Sukarami","kind":"District"},"geometry":{"type":"Point","coordinates":[104.71337647000007,-2.909463149999965]},"id":null},{"type":"Feature","properties":{"parent_code":"1671","parent_name":"Kota Palembang","code":"","name":"Ilir Barat Satu","kind":"District"},"geometry":{"type":"Point","coordinates":[104.67935732550006,-2.970372056999935]},"id":null},{"type":"Feature","properties":{"parent_code":"1671","parent_name":"Kota Palembang","code":"","name":"Ilir Timur Satu","kind":"District"},"geometry":{"type":"Point","coordinates":[104.74682491550007,-2.9725087659999474]},"id":null},{"type":"Feature","properties":{"parent_code":"1671","parent_name":"Kota Palembang","code":"","name":"Sako","kind":"District"},"geometry":{"type":"Point","coordinates":[104.78598086300005,-2.918692068999945]},"id":null},{"type":"Feature","properties":{"parent_code":"1671","parent_name":"Kota Palembang","code":"","name":"Kemuning","kind":"District"},"geometry":{"type":"Point","coordinates":[104.74795461650004,-2.953907813999962]},"id":null},{"type":"Feature","properties":{"parent_code":"1671","parent_name":"Kota Palembang","code":"","name":"Seberang Ulu Satu","kind":"District"},"geometry":{"type":"Point","coordinates":[104.76096602050004,-3.0041582324999467]},"id":null},{"type":"Feature","properties":{"parent_code":"1671","parent_name":"Kota Palembang","code":"","name":"Seberang Ulu Dua","kind":"District"},"geometry":{"type":"Point","coordinates":[104.78538802850008,-2.996567152999944]},"id":null},{"type":"Feature","properties":{"parent_code":"1671","parent_name":"Kota Palembang","code":"","name":"Ilir Barat Dua","kind":"District"},"geometry":{"type":"Point","coordinates":[104.74518379900007,-2.9993205164999495]},"id":null},{"type":"Feature","properties":{"parent_code":"1671","parent_name":"Kota Palembang","code":"","name":"Jakabaring","kind":"District"},"geometry":{"type":"Point","coordinates":[104.77555037550005,-3.0215111814999314]},"id":null},{"type":"Feature","properties":{"parent_code":"1671","parent_name":"Kota Palembang","code":"","name":"Ilir Timur Tiga","kind":"District"},"geometry":{"type":"Point","coordinates":[104.76991658000006,-2.9587725934999582]},"id":null},{"type":"Feature","properties":{"parent_code":"1671","parent_name":"Kota Palembang","code":"","name":"Alang-alang Lebar","kind":"District"},"geometry":{"type":"Point","coordinates":[104.70469019350006,-2.939313153499967]},"id":null},{"type":"Feature","properties":{"parent_code":"1671","parent_name":"Kota Palembang","code":"","name":"Sematangborang","kind":"District"},"geometry":{"type":"Point","coordinates":[104.81752778050006,-2.926148062999971]},"id":null},{"type":"Feature","properties":{"parent_code":"1671","parent_name":"Kota Palembang","code":"","name":"Kalidoni","kind":"District"},"geometry":{"type":"Point","coordinates":[104.81635163300007,-2.9598387644999495]},"id":null},{"type":"Feature","properties":{"parent_code":"1671","parent_name":"Kota Palembang","code":"","name":"Kertapati","kind":"District"},"geometry":{"type":"Point","coordinates":[104.72433395850007,-3.0510672584999554]},"id":null},{"type":"Feature","properties":{"parent_code":"1671","parent_name":"Kota Palembang","code":"","name":"Plaju","kind":"District"},"geometry":{"type":"Point","coordinates":[104.81474480100005,-3.013559449999946]},"id":null},{"type":"Feature","properties":{"parent_code":"1671","parent_name":"Kota Palembang","code":"","name":"Bukitkecil","kind":"District"},"geometry":{"type":"Point","coordinates":[104.75342650750008,-2.987631760999932]},"id":null},{"type":"Feature","properties":{"parent_code":"1671","parent_name":"Kota Palembang","code":"","name":"Gandus","kind":"District"},"geometry":{"type":"Point","coordinates":[104.68829197250005,-3.000635940999956]},"id":null}]}