{"type":"FeatureCollection","features":[{"type":"Feature","properties":{"parent_code":"9211","parent_name":"Manokwari Selatan","code":"921106","name":"Tahota","kind":"District"},"geometry":{"type":"Point","coordinates":[133.98927942450007,-1.743149615999954]},"id":921106},{"type":"Feature","properties":{"parent_code":"9211","parent_name":"Manokwari Selatan","code":"921101","name":"Ransiki","kind":"District"},"geometry":{"type":"Point","coordinates":[134.1186650845001,-1.4568738269999524]},"id":921101},{"type":"Feature","properties":{"parent_code":"9211","parent_name":"Manokwari Selatan","code":"921104","name":"Dataran Isim","kind":"District"},"geometry":{"type":"Point","coordinates":[133.81105595550008,-1.6208323169999515]},"id":921104},{"type":"Feature","properties":{"parent_code":"9211","parent_name":"Manokwari Selatan","code":"921105","name":"Momi Waren","kind":"District"},"geometry":{"type":"Point","coordinates":[134.10339822700007,-1.6245834599999687]},"id":921105},{"type":"Feature","properties":{"parent_code":"9211","parent_name":"Manokwari Selatan","code":"921102","name":"Oransbari","kind":"District"},"geometry":{"type":"Point","coordinates":[134.15744621000005,-1.331018739999962]},"id":921102},{"type":"Feature","properties":{"parent_code":"9211","parent_name":"Manokwari Selatan","code":"921103","name":"Neney","kind":"District"},"geometry":{"type":"Point","coordinates":[133.99562111850003,-1.567908296499951]},"id":921103}]}