{"type":"FeatureCollection","features":[{"type":"Feature","properties":{"parent_code":"3507","parent_name":"Malang","code":"","name":"Jabung","kind":"District"},"geometry":{"type":"Point","coordinates":[112.79524077100007,-7.934994746499967]},"id":null},{"type":"Feature","properties":{"parent_code":"3507","parent_name":"Malang","code":"","name":"Pakis","kind":"District"},"geometry":{"type":"Point","coordinates":[112.70850823950002,-7.961624880999949]},"id":null},{"type":"Feature","properties":{"parent_code":"3507","parent_name":"Malang","code":"","name":"Tajinan","kind":"District"},"geometry":{"type":"Point","coordinates":[112.67679081300008,-8.059365608499945]},"id":null},{"type":"Feature","properties":{"parent_code":"3507","parent_name":"Malang","code":"","name":"Tumpang","kind":"District"},"geometry":{"type":"Point","coordinates":[112.75872410200003,-8.011135641999942]},"id":null},{"type":"Feature","properties":{"parent_code":"3507","parent_name":"Malang","code":"","name":"Pakisaji","kind":"District"},"geometry":{"type":"Point","coordinates":[112.59079911000009,-8.059345268999948]},"id":null},{"type":"Feature","properties":{"parent_code":"3507","parent_name":"Malang","code":"","name":"Gondanglegi","kind":"District"},"geometry":{"type":"Point","coordinates":[112.62657307850009,-8.158031225999935]},"id":null},{"type":"Feature","properties":{"parent_code":"3507","parent_name":"Malang","code":"","name":"Kepanjen","kind":"District"},"geometry":{"type":"Point","coordinates":[112.57490026200009,-8.133570542999962]},"id":null},{"type":"Feature","properties":{"parent_code":"3507","parent_name":"Malang","code":"","name":"Bululawang","kind":"District"},"geometry":{"type":"Point","coordinates":[112.64655281300008,-8.094667031499966]},"id":null},{"type":"Feature","properties":{"parent_code":"3507","parent_name":"Malang","code":"","name":"Kalipare","kind":"District"},"geometry":{"type":"Point","coordinates":[112.43036700250008,-8.215521262499983]},"id":null},{"type":"Feature","properties":{"parent_code":"3507","parent_name":"Malang","code":"","name":"Sumberpucung","kind":"District"},"geometry":{"type":"Point","coordinates":[112.48836580650004,-8.165156774499962]},"id":null},{"type":"Feature","properties":{"parent_code":"3507","parent_name":"Malang","code":"","name":"Kasembon","kind":"District"},"geometry":{"type":"Point","coordinates":[112.33937680800003,-7.816044108499938]},"id":null},{"type":"Feature","properties":{"parent_code":"3507","parent_name":"Malang","code":"","name":"Gedangan","kind":"District"},"geometry":{"type":"Point","coordinates":[112.61211157000002,-8.336275572499972]},"id":null},{"type":"Feature","properties":{"parent_code":"3507","parent_name":"Malang","code":"","name":"Pujon","kind":"District"},"geometry":{"type":"Point","coordinates":[112.43958759750006,-7.855747840999953]},"id":null},{"type":"Feature","properties":{"parent_code":"3507","parent_name":"Malang","code":"","name":"Ngantang","kind":"District"},"geometry":{"type":"Point","coordinates":[112.37936215150006,-7.880095303499957]},"id":null},{"type":"Feature","properties":{"parent_code":"3507","parent_name":"Malang","code":"","name":"Ngajum","kind":"District"},"geometry":{"type":"Point","coordinates":[112.5281112130001,-8.049759645499961]},"id":null},{"type":"Feature","properties":{"parent_code":"3507","parent_name":"Malang","code":"","name":"Wagir","kind":"District"},"geometry":{"type":"Point","coordinates":[112.55226519050007,-8.007357914499948]},"id":null},{"type":"Feature","properties":{"parent_code":"3507","parent_name":"Malang","code":"","name":"Singosari","kind":"District"},"geometry":{"type":"Point","coordinates":[112.6720151665001,-7.847465180499967]},"id":null},{"type":"Feature","properties":{"parent_code":"3507","parent_name":"Malang","code":"","name":"Lawang","kind":"District"},"geometry":{"type":"Point","coordinates":[112.68800755050006,-7.8421344134999345]},"id":null},{"type":"Feature","properties":{"parent_code":"3507","parent_name":"Malang","code":"","name":"Dau","kind":"District"},"geometry":{"type":"Point","coordinates":[112.53379035400008,-7.945606901999952]},"id":null},{"type":"Feature","properties":{"parent_code":"3507","parent_name":"Malang","code":"","name":"Karangploso","kind":"District"},"geometry":{"type":"Point","coordinates":[112.5989629770001,-7.85296771299997]},"id":null},{"type":"Feature","properties":{"parent_code":"3507","parent_name":"Malang","code":"","name":"Kromengan","kind":"District"},"geometry":{"type":"Point","coordinates":[112.5013396005001,-8.111793953499955]},"id":null},{"type":"Feature","properties":{"parent_code":"3507","parent_name":"Malang","code":"","name":"Wonosari","kind":"District"},"geometry":{"type":"Point","coordinates":[112.49467577200005,-8.051181864499966]},"id":null},{"type":"Feature","properties":{"parent_code":"3507","parent_name":"Malang","code":"","name":"Tirtoyudo","kind":"District"},"geometry":{"type":"Point","coordinates":[112.85819910750007,-8.269203413499952]},"id":null},{"type":"Feature","properties":{"parent_code":"3507","parent_name":"Malang","code":"","name":"Pagelaran","kind":"District"},"geometry":{"type":"Point","coordinates":[112.60078493300006,-8.197417560999952]},"id":null},{"type":"Feature","properties":{"parent_code":"3507","parent_name":"Malang","code":"","name":"Ampelgading","kind":"District"},"geometry":{"type":"Point","coordinates":[112.89404257950002,-8.245722191499965]},"id":null},{"type":"Feature","properties":{"parent_code":"3507","parent_name":"Malang","code":"","name":"Poncokusumo","kind":"District"},"geometry":{"type":"Point","coordinates":[112.82387991400009,-8.03243792799995]},"id":null},{"type":"Feature","properties":{"parent_code":"3507","parent_name":"Malang","code":"","name":"Sumbermanjing Wetan","kind":"District"},"geometry":{"type":"Point","coordinates":[112.72276191200007,-8.345054883499955]},"id":null},{"type":"Feature","properties":{"parent_code":"3507","parent_name":"Malang","code":"","name":"Dampit","kind":"District"},"geometry":{"type":"Point","coordinates":[112.76901923600002,-8.245765132499969]},"id":null},{"type":"Feature","properties":{"parent_code":"3507","parent_name":"Malang","code":"","name":"Wajak","kind":"District"},"geometry":{"type":"Point","coordinates":[112.77719144600002,-8.115118674999934]},"id":null},{"type":"Feature","properties":{"parent_code":"3507","parent_name":"Malang","code":"","name":"Turen","kind":"District"},"geometry":{"type":"Point","coordinates":[112.70690039100009,-8.176970844999971]},"id":null},{"type":"Feature","properties":{"parent_code":"3507","parent_name":"Malang","code":"","name":"Pagak","kind":"District"},"geometry":{"type":"Point","coordinates":[112.51516685850004,-8.253198393999952]},"id":null},{"type":"Feature","properties":{"parent_code":"3507","parent_name":"Malang","code":"","name":"Bantur","kind":"District"},"geometry":{"type":"Point","coordinates":[112.54897054750006,-8.302521355499989]},"id":null},{"type":"Feature","properties":{"parent_code":"3507","parent_name":"Malang","code":"","name":"Donomulyo","kind":"District"},"geometry":{"type":"Point","coordinates":[112.43343013350005,-8.317712706999941]},"id":null}]}