{"type":"FeatureCollection","features":[{"type":"Feature","properties":{"parent_code":"3508","parent_name":"Lumajang","code":"","name":"Yosowilangun","kind":"District"},"geometry":{"type":"Point","coordinates":[113.27764796350004,-8.253173755499972]},"id":null},{"type":"Feature","properties":{"parent_code":"3508","parent_name":"Lumajang","code":"","name":"Rowokangkung","kind":"District"},"geometry":{"type":"Point","coordinates":[113.32019801650006,-8.183866308499944]},"id":null},{"type":"Feature","properties":{"parent_code":"3508","parent_name":"Lumajang","code":"","name":"Tempeh","kind":"District"},"geometry":{"type":"Point","coordinates":[113.17178289850006,-8.214617813999979]},"id":null},{"type":"Feature","properties":{"parent_code":"3508","parent_name":"Lumajang","code":"","name":"Kunir","kind":"District"},"geometry":{"type":"Point","coordinates":[113.23237255500004,-8.226632022499956]},"id":null},{"type":"Feature","properties":{"parent_code":"3508","parent_name":"Lumajang","code":"","name":"Tekung","kind":"District"},"geometry":{"type":"Point","coordinates":[113.25550298950009,-8.184859012999965]},"id":null},{"type":"Feature","properties":{"parent_code":"3508","parent_name":"Lumajang","code":"","name":"Candipuro","kind":"District"},"geometry":{"type":"Point","coordinates":[113.04315105650005,-8.181581802499977]},"id":null},{"type":"Feature","properties":{"parent_code":"3508","parent_name":"Lumajang","code":"","name":"Pasirian","kind":"District"},"geometry":{"type":"Point","coordinates":[113.09536530750006,-8.228767208999955]},"id":null},{"type":"Feature","properties":{"parent_code":"3508","parent_name":"Lumajang","code":"","name":"Tempursari","kind":"District"},"geometry":{"type":"Point","coordinates":[112.97692612550009,-8.291408435999955]},"id":null},{"type":"Feature","properties":{"parent_code":"3508","parent_name":"Lumajang","code":"","name":"Pronojiwo","kind":"District"},"geometry":{"type":"Point","coordinates":[112.9612267655001,-8.18496236599995]},"id":null},{"type":"Feature","properties":{"parent_code":"3508","parent_name":"Lumajang","code":"","name":"Randuagung","kind":"District"},"geometry":{"type":"Point","coordinates":[113.31321558400009,-8.045128585999947]},"id":null},{"type":"Feature","properties":{"parent_code":"3508","parent_name":"Lumajang","code":"","name":"Klakah","kind":"District"},"geometry":{"type":"Point","coordinates":[113.25022201900003,-8.001293302999954]},"id":null},{"type":"Feature","properties":{"parent_code":"3508","parent_name":"Lumajang","code":"","name":"Kedungjajang","kind":"District"},"geometry":{"type":"Point","coordinates":[113.22733111700006,-8.03685628499997]},"id":null},{"type":"Feature","properties":{"parent_code":"3508","parent_name":"Lumajang","code":"","name":"Jatiroto","kind":"District"},"geometry":{"type":"Point","coordinates":[113.32444634700005,-8.128672642499964]},"id":null},{"type":"Feature","properties":{"parent_code":"3508","parent_name":"Lumajang","code":"","name":"Lumajang","kind":"District"},"geometry":{"type":"Point","coordinates":[113.2281674885001,-8.133300000999952]},"id":null},{"type":"Feature","properties":{"parent_code":"3508","parent_name":"Lumajang","code":"","name":"Pasrujambe","kind":"District"},"geometry":{"type":"Point","coordinates":[113.02753623950008,-8.092885464999938]},"id":null},{"type":"Feature","properties":{"parent_code":"3508","parent_name":"Lumajang","code":"","name":"Padang","kind":"District"},"geometry":{"type":"Point","coordinates":[113.17759317050007,-8.093848872499962]},"id":null},{"type":"Feature","properties":{"parent_code":"3508","parent_name":"Lumajang","code":"","name":"Sukodono","kind":"District"},"geometry":{"type":"Point","coordinates":[113.23505705300005,-8.105474436499975]},"id":null},{"type":"Feature","properties":{"parent_code":"3508","parent_name":"Lumajang","code":"","name":"Senduro","kind":"District"},"geometry":{"type":"Point","coordinates":[113.04057775150005,-8.051881731499947]},"id":null},{"type":"Feature","properties":{"parent_code":"3508","parent_name":"Lumajang","code":"","name":"Gucialit","kind":"District"},"geometry":{"type":"Point","coordinates":[113.1335149405001,-8.032510697999953]},"id":null},{"type":"Feature","properties":{"parent_code":"3508","parent_name":"Lumajang","code":"","name":"Sumbersuko","kind":"District"},"geometry":{"type":"Point","coordinates":[113.18957280100005,-8.149309664499953]},"id":null},{"type":"Feature","properties":{"parent_code":"3508","parent_name":"Lumajang","code":"","name":"Ranuyoso","kind":"District"},"geometry":{"type":"Point","coordinates":[113.24952819350005,-7.94271602799995]},"id":null}]}