{"type":"FeatureCollection","features":[{"type":"Feature","properties":{"parent_code":"3512","parent_name":"Situbondo","code":"","name":"Jatibanteng","kind":"District"},"geometry":{"type":"Point","coordinates":[113.65164216600004,-7.828905621499985]},"id":null},{"type":"Feature","properties":{"parent_code":"3512","parent_name":"Situbondo","code":"","name":"Mlandingan","kind":"District"},"geometry":{"type":"Point","coordinates":[113.79749492650004,-7.774326582999947]},"id":null},{"type":"Feature","properties":{"parent_code":"3512","parent_name":"Situbondo","code":"","name":"Kendit","kind":"District"},"geometry":{"type":"Point","coordinates":[113.91539000050005,-7.7414955364999685]},"id":null},{"type":"Feature","properties":{"parent_code":"3512","parent_name":"Situbondo","code":"","name":"Besuki","kind":"District"},"geometry":{"type":"Point","coordinates":[113.70315686850003,-7.749697227499951]},"id":null},{"type":"Feature","properties":{"parent_code":"3512","parent_name":"Situbondo","code":"","name":"Suboh","kind":"District"},"geometry":{"type":"Point","coordinates":[113.73591405800005,-7.764355764999986]},"id":null},{"type":"Feature","properties":{"parent_code":"3512","parent_name":"Situbondo","code":"","name":"Panji","kind":"District"},"geometry":{"type":"Point","coordinates":[114.03508759800002,-7.707281712499963]},"id":null},{"type":"Feature","properties":{"parent_code":"3512","parent_name":"Situbondo","code":"","name":"Mangaran","kind":"District"},"geometry":{"type":"Point","coordinates":[114.04506747300002,-7.640084816499979]},"id":null},{"type":"Feature","properties":{"parent_code":"3512","parent_name":"Situbondo","code":"","name":"Panarukan","kind":"District"},"geometry":{"type":"Point","coordinates":[113.96728906350006,-7.6935196189999715]},"id":null},{"type":"Feature","properties":{"parent_code":"3512","parent_name":"Situbondo","code":"","name":"Situbondo","kind":"District"},"geometry":{"type":"Point","coordinates":[113.98585212300009,-7.719702385999968]},"id":null},{"type":"Feature","properties":{"parent_code":"3512","parent_name":"Situbondo","code":"","name":"Arjasa","kind":"District"},"geometry":{"type":"Point","coordinates":[114.1225012265001,-7.850277179999949]},"id":null},{"type":"Feature","properties":{"parent_code":"3512","parent_name":"Situbondo","code":"","name":"Jangkar","kind":"District"},"geometry":{"type":"Point","coordinates":[114.17404864000002,-7.776039999999966]},"id":null},{"type":"Feature","properties":{"parent_code":"3512","parent_name":"Situbondo","code":"","name":"Kapongan","kind":"District"},"geometry":{"type":"Point","coordinates":[114.08134487000007,-7.712951440999973]},"id":null},{"type":"Feature","properties":{"parent_code":"3512","parent_name":"Situbondo","code":"","name":"Sumbermalang","kind":"District"},"geometry":{"type":"Point","coordinates":[113.67238219750004,-7.874307812999945]},"id":null},{"type":"Feature","properties":{"parent_code":"3512","parent_name":"Situbondo","code":"","name":"Banyuglugur","kind":"District"},"geometry":{"type":"Point","coordinates":[113.62821124900006,-7.75722249699993]},"id":null},{"type":"Feature","properties":{"parent_code":"3512","parent_name":"Situbondo","code":"","name":"Asembagus","kind":"District"},"geometry":{"type":"Point","coordinates":[114.22270214250005,-7.842193358499969]},"id":null},{"type":"Feature","properties":{"parent_code":"3512","parent_name":"Situbondo","code":"","name":"Banyuputih","kind":"District"},"geometry":{"type":"Point","coordinates":[114.34932796800007,-7.809795901999962]},"id":null},{"type":"Feature","properties":{"parent_code":"3512","parent_name":"Situbondo","code":"","name":"Bungatan","kind":"District"},"geometry":{"type":"Point","coordinates":[113.82158341900009,-7.7308729604999655]},"id":null}]}