{"type":"FeatureCollection","features":[{"type":"Feature","properties":{"parent_code":"3515","parent_name":"Sidoarjo","code":"","name":"Krembung","kind":"District"},"geometry":{"type":"Point","coordinates":[112.63803033200008,-7.517056849499966]},"id":null},{"type":"Feature","properties":{"parent_code":"3515","parent_name":"Sidoarjo","code":"","name":"Porong","kind":"District"},"geometry":{"type":"Point","coordinates":[112.73390162900006,-7.532775142999952]},"id":null},{"type":"Feature","properties":{"parent_code":"3515","parent_name":"Sidoarjo","code":"","name":"Tarik","kind":"District"},"geometry":{"type":"Point","coordinates":[112.51083315000011,-7.447965469999957]},"id":null},{"type":"Feature","properties":{"parent_code":"3515","parent_name":"Sidoarjo","code":"","name":"Prambon","kind":"District"},"geometry":{"type":"Point","coordinates":[112.58090900800005,-7.465708272499938]},"id":null},{"type":"Feature","properties":{"parent_code":"3515","parent_name":"Sidoarjo","code":"","name":"Candi","kind":"District"},"geometry":{"type":"Point","coordinates":[112.73206538900007,-7.48528725099996]},"id":null},{"type":"Feature","properties":{"parent_code":"3515","parent_name":"Sidoarjo","code":"","name":"Sidoarjo","kind":"District"},"geometry":{"type":"Point","coordinates":[112.74185592550009,-7.4734728409999605]},"id":null},{"type":"Feature","properties":{"parent_code":"3515","parent_name":"Sidoarjo","code":"","name":"Jabon","kind":"District"},"geometry":{"type":"Point","coordinates":[112.79082261000002,-7.535404820499934]},"id":null},{"type":"Feature","properties":{"parent_code":"3515","parent_name":"Sidoarjo","code":"","name":"Tanggulangin","kind":"District"},"geometry":{"type":"Point","coordinates":[112.72083830300011,-7.506931915499933]},"id":null},{"type":"Feature","properties":{"parent_code":"3515","parent_name":"Sidoarjo","code":"","name":"Tulangan","kind":"District"},"geometry":{"type":"Point","coordinates":[112.64787649150009,-7.475455337999961]},"id":null},{"type":"Feature","properties":{"parent_code":"3515","parent_name":"Sidoarjo","code":"","name":"Sukodono","kind":"District"},"geometry":{"type":"Point","coordinates":[112.66554851650005,-7.397570064499945]},"id":null},{"type":"Feature","properties":{"parent_code":"3515","parent_name":"Sidoarjo","code":"","name":"Buduran","kind":"District"},"geometry":{"type":"Point","coordinates":[112.75559255200005,-7.442689512999976]},"id":null},{"type":"Feature","properties":{"parent_code":"3515","parent_name":"Sidoarjo","code":"","name":"Balongbendo","kind":"District"},"geometry":{"type":"Point","coordinates":[112.52512739550002,-7.418165123999927]},"id":null},{"type":"Feature","properties":{"parent_code":"3515","parent_name":"Sidoarjo","code":"","name":"Taman","kind":"District"},"geometry":{"type":"Point","coordinates":[112.6674283000001,-7.363361077499974]},"id":null},{"type":"Feature","properties":{"parent_code":"3515","parent_name":"Sidoarjo","code":"","name":"Waru","kind":"District"},"geometry":{"type":"Point","coordinates":[112.76837626150007,-7.353379044499945]},"id":null},{"type":"Feature","properties":{"parent_code":"3515","parent_name":"Sidoarjo","code":"","name":"Gedangan","kind":"District"},"geometry":{"type":"Point","coordinates":[112.72826669850008,-7.389356405499967]},"id":null},{"type":"Feature","properties":{"parent_code":"3515","parent_name":"Sidoarjo","code":"","name":"Sedati","kind":"District"},"geometry":{"type":"Point","coordinates":[112.79366248200006,-7.407918010999964]},"id":null},{"type":"Feature","properties":{"parent_code":"3515","parent_name":"Sidoarjo","code":"","name":"Wonoayu","kind":"District"},"geometry":{"type":"Point","coordinates":[112.62926932850007,-7.427965020999949]},"id":null},{"type":"Feature","properties":{"parent_code":"3515","parent_name":"Sidoarjo","code":"","name":"Krian","kind":"District"},"geometry":{"type":"Point","coordinates":[112.59496209500008,-7.402946184999934]},"id":null}]}