{"type":"FeatureCollection","features":[{"type":"Feature","properties":{"parent_code":"3523","parent_name":"Tuban","code":"","name":"Kenduruan","kind":"District"},"geometry":{"type":"Point","coordinates":[111.62768991150006,-6.941300495499987]},"id":null},{"type":"Feature","properties":{"parent_code":"3523","parent_name":"Tuban","code":"","name":"Bancar","kind":"District"},"geometry":{"type":"Point","coordinates":[111.74108754000004,-6.810726271499959]},"id":null},{"type":"Feature","properties":{"parent_code":"3523","parent_name":"Tuban","code":"","name":"Senori","kind":"District"},"geometry":{"type":"Point","coordinates":[111.72276310950005,-7.0376945149999415]},"id":null},{"type":"Feature","properties":{"parent_code":"3523","parent_name":"Tuban","code":"","name":"Jatirogo","kind":"District"},"geometry":{"type":"Point","coordinates":[111.67744281900002,-6.867197634499945]},"id":null},{"type":"Feature","properties":{"parent_code":"3523","parent_name":"Tuban","code":"","name":"Bangilan","kind":"District"},"geometry":{"type":"Point","coordinates":[111.71058120900003,-6.95841]},"id":null},{"type":"Feature","properties":{"parent_code":"3523","parent_name":"Tuban","code":"","name":"Kerek","kind":"District"},"geometry":{"type":"Point","coordinates":[111.84586999999999,-6.88363499899998]},"id":null},{"type":"Feature","properties":{"parent_code":"3523","parent_name":"Tuban","code":"","name":"Parengan","kind":"District"},"geometry":{"type":"Point","coordinates":[111.84775505800008,-7.055158864499967]},"id":null},{"type":"Feature","properties":{"parent_code":"3523","parent_name":"Tuban","code":"","name":"Tambakboyo","kind":"District"},"geometry":{"type":"Point","coordinates":[111.81545573250003,-6.848343998499956]},"id":null},{"type":"Feature","properties":{"parent_code":"3523","parent_name":"Tuban","code":"","name":"Singgahan","kind":"District"},"geometry":{"type":"Point","coordinates":[111.78196500000001,-6.977824688499966]},"id":null},{"type":"Feature","properties":{"parent_code":"3523","parent_name":"Tuban","code":"","name":"Soko","kind":"District"},"geometry":{"type":"Point","coordinates":[111.94204129850004,-7.096747537999971]},"id":null},{"type":"Feature","properties":{"parent_code":"3523","parent_name":"Tuban","code":"","name":"Jenu","kind":"District"},"geometry":{"type":"Point","coordinates":[111.97027425350007,-6.823651061499959]},"id":null},{"type":"Feature","properties":{"parent_code":"3523","parent_name":"Tuban","code":"","name":"Montong","kind":"District"},"geometry":{"type":"Point","coordinates":[111.87771000000001,-6.974865000999975]},"id":null},{"type":"Feature","properties":{"parent_code":"3523","parent_name":"Tuban","code":"","name":"Semanding","kind":"District"},"geometry":{"type":"Point","coordinates":[112.05252,-6.962490575999936]},"id":null},{"type":"Feature","properties":{"parent_code":"3523","parent_name":"Tuban","code":"","name":"Tuban","kind":"District"},"geometry":{"type":"Point","coordinates":[112.04066068150007,-6.895812706999948]},"id":null},{"type":"Feature","properties":{"parent_code":"3523","parent_name":"Tuban","code":"","name":"Merakurak","kind":"District"},"geometry":{"type":"Point","coordinates":[111.96225031500003,-6.879140000499969]},"id":null},{"type":"Feature","properties":{"parent_code":"3523","parent_name":"Tuban","code":"","name":"Rengel","kind":"District"},"geometry":{"type":"Point","coordinates":[112.02044798650005,-7.0826875004999685]},"id":null},{"type":"Feature","properties":{"parent_code":"3523","parent_name":"Tuban","code":"","name":"Widang","kind":"District"},"geometry":{"type":"Point","coordinates":[112.17014724250004,-7.039731816999961]},"id":null},{"type":"Feature","properties":{"parent_code":"3523","parent_name":"Tuban","code":"","name":"Plumpang","kind":"District"},"geometry":{"type":"Point","coordinates":[112.10625,-7.0458091579999405]},"id":null},{"type":"Feature","properties":{"parent_code":"3523","parent_name":"Tuban","code":"","name":"Palang","kind":"District"},"geometry":{"type":"Point","coordinates":[112.14255712300007,-6.938005944499963]},"id":null},{"type":"Feature","properties":{"parent_code":"3523","parent_name":"Tuban","code":"","name":"Grabagan","kind":"District"},"geometry":{"type":"Point","coordinates":[111.99656,-7.004700000499964]},"id":null}]}