{"type":"FeatureCollection","features":[{"type":"Feature","properties":{"parent_code":"3527","parent_name":"Sampang","code":"","name":"Pangarengan","kind":"District"},"geometry":{"type":"Point","coordinates":[113.17240022300007,-7.191639689999931]},"id":null},{"type":"Feature","properties":{"parent_code":"3527","parent_name":"Sampang","code":"","name":"Karangpenang","kind":"District"},"geometry":{"type":"Point","coordinates":[113.37238999250008,-7.020960999499948]},"id":null},{"type":"Feature","properties":{"parent_code":"3527","parent_name":"Sampang","code":"","name":"Sokobanah","kind":"District"},"geometry":{"type":"Point","coordinates":[113.40105305500003,-6.940474086499961]},"id":null},{"type":"Feature","properties":{"parent_code":"3527","parent_name":"Sampang","code":"","name":"Ketapang","kind":"District"},"geometry":{"type":"Point","coordinates":[113.30311589850004,-6.928506485999947]},"id":null},{"type":"Feature","properties":{"parent_code":"3527","parent_name":"Sampang","code":"","name":"Robatal","kind":"District"},"geometry":{"type":"Point","coordinates":[113.28105492000005,-7.010265509499959]},"id":null},{"type":"Feature","properties":{"parent_code":"3527","parent_name":"Sampang","code":"","name":"Camplong","kind":"District"},"geometry":{"type":"Point","coordinates":[113.33144646700003,-7.184337368499968]},"id":null},{"type":"Feature","properties":{"parent_code":"3527","parent_name":"Sampang","code":"","name":"Omben","kind":"District"},"geometry":{"type":"Point","coordinates":[113.33210000050008,-7.103605499999929]},"id":null},{"type":"Feature","properties":{"parent_code":"3527","parent_name":"Sampang","code":"","name":"Torjun","kind":"District"},"geometry":{"type":"Point","coordinates":[113.19815300050003,-7.146316608999967]},"id":null},{"type":"Feature","properties":{"parent_code":"3527","parent_name":"Sampang","code":"","name":"Sampang","kind":"District"},"geometry":{"type":"Point","coordinates":[113.24847593050009,-7.213201588499942]},"id":null},{"type":"Feature","properties":{"parent_code":"3527","parent_name":"Sampang","code":"","name":"Tambelangan","kind":"District"},"geometry":{"type":"Point","coordinates":[113.16091343700009,-7.044987048999957]},"id":null},{"type":"Feature","properties":{"parent_code":"3527","parent_name":"Sampang","code":"","name":"Banyuates","kind":"District"},"geometry":{"type":"Point","coordinates":[113.17712796050006,-6.9538829784999905]},"id":null},{"type":"Feature","properties":{"parent_code":"3527","parent_name":"Sampang","code":"","name":"Kedungdung","kind":"District"},"geometry":{"type":"Point","coordinates":[113.25153127150008,-7.075623483999948]},"id":null},{"type":"Feature","properties":{"parent_code":"3527","parent_name":"Sampang","code":"","name":"Jrengik","kind":"District"},"geometry":{"type":"Point","coordinates":[113.14595673100007,-7.128016020999951]},"id":null},{"type":"Feature","properties":{"parent_code":"3527","parent_name":"Sampang","code":"","name":"Sreseh","kind":"District"},"geometry":{"type":"Point","coordinates":[113.09536869500005,-7.189160022499948]},"id":null}]}