{"type":"FeatureCollection","features":[{"type":"Feature","properties":{"parent_code":"3578","parent_name":"Kota Surabaya","code":"","name":"Benowo","kind":"District"},"geometry":{"type":"Point","coordinates":[112.65201077600005,-7.227979402499955]},"id":null},{"type":"Feature","properties":{"parent_code":"3578","parent_name":"Kota Surabaya","code":"","name":"Kenjeran","kind":"District"},"geometry":{"type":"Point","coordinates":[112.77195097650008,-7.216495474499936]},"id":null},{"type":"Feature","properties":{"parent_code":"3578","parent_name":"Kota Surabaya","code":"","name":"Lakarsantri","kind":"District"},"geometry":{"type":"Point","coordinates":[112.65445555000008,-7.311543390999958]},"id":null},{"type":"Feature","properties":{"parent_code":"3578","parent_name":"Kota Surabaya","code":"","name":"Gayungan","kind":"District"},"geometry":{"type":"Point","coordinates":[112.72614513300003,-7.328167364999928]},"id":null},{"type":"Feature","properties":{"parent_code":"3578","parent_name":"Kota Surabaya","code":"","name":"Jambangan","kind":"District"},"geometry":{"type":"Point","coordinates":[112.71532503750007,-7.324059364999954]},"id":null},{"type":"Feature","properties":{"parent_code":"3578","parent_name":"Kota Surabaya","code":"","name":"Wiyung","kind":"District"},"geometry":{"type":"Point","coordinates":[112.69241416950007,-7.309671236999947]},"id":null},{"type":"Feature","properties":{"parent_code":"3578","parent_name":"Kota Surabaya","code":"","name":"Dukuh Pakis","kind":"District"},"geometry":{"type":"Point","coordinates":[112.70033600800002,-7.291863347499941]},"id":null},{"type":"Feature","properties":{"parent_code":"3578","parent_name":"Kota Surabaya","code":"","name":"Mulyorejo","kind":"District"},"geometry":{"type":"Point","coordinates":[112.79964660250005,-7.269291317999944]},"id":null},{"type":"Feature","properties":{"parent_code":"3578","parent_name":"Kota Surabaya","code":"","name":"Sukomanunggal","kind":"District"},"geometry":{"type":"Point","coordinates":[112.69896622500005,-7.271693350499959]},"id":null},{"type":"Feature","properties":{"parent_code":"3578","parent_name":"Kota Surabaya","code":"","name":"Tenggilis Mejoyo","kind":"District"},"geometry":{"type":"Point","coordinates":[112.7573629850001,-7.32405499099994]},"id":null},{"type":"Feature","properties":{"parent_code":"3578","parent_name":"Kota Surabaya","code":"","name":"Gunung Anyar","kind":"District"},"geometry":{"type":"Point","coordinates":[112.79288859650006,-7.338400856999954]},"id":null},{"type":"Feature","properties":{"parent_code":"3578","parent_name":"Kota Surabaya","code":"","name":"Asem Rowo","kind":"District"},"geometry":{"type":"Point","coordinates":[112.6890932550001,-7.238288605499946]},"id":null},{"type":"Feature","properties":{"parent_code":"3578","parent_name":"Kota Surabaya","code":"","name":"Bulak","kind":"District"},"geometry":{"type":"Point","coordinates":[112.79333138150002,-7.232263377499947]},"id":null},{"type":"Feature","properties":{"parent_code":"3578","parent_name":"Kota Surabaya","code":"","name":"Sambikerep","kind":"District"},"geometry":{"type":"Point","coordinates":[112.65295569500006,-7.276455610499966]},"id":null},{"type":"Feature","properties":{"parent_code":"3578","parent_name":"Kota Surabaya","code":"","name":"Pakal","kind":"District"},"geometry":{"type":"Point","coordinates":[112.61252149750004,-7.230723515999955]},"id":null},{"type":"Feature","properties":{"parent_code":"3578","parent_name":"Kota Surabaya","code":"","name":"Karang Pilang","kind":"District"},"geometry":{"type":"Point","coordinates":[112.68454014500008,-7.332136721999973]},"id":null},{"type":"Feature","properties":{"parent_code":"3578","parent_name":"Kota Surabaya","code":"","name":"Wonokromo","kind":"District"},"geometry":{"type":"Point","coordinates":[112.73862193050002,-7.294421785499971]},"id":null},{"type":"Feature","properties":{"parent_code":"3578","parent_name":"Kota Surabaya","code":"","name":"Tegalsari","kind":"District"},"geometry":{"type":"Point","coordinates":[112.73684052900006,-7.274305131499943]},"id":null},{"type":"Feature","properties":{"parent_code":"3578","parent_name":"Kota Surabaya","code":"","name":"Wonocolo","kind":"District"},"geometry":{"type":"Point","coordinates":[112.7451077560001,-7.325025589499944]},"id":null},{"type":"Feature","properties":{"parent_code":"3578","parent_name":"Kota Surabaya","code":"","name":"Rungkut","kind":"District"},"geometry":{"type":"Point","coordinates":[112.80148644900004,-7.317038107999963]},"id":null},{"type":"Feature","properties":{"parent_code":"3578","parent_name":"Kota Surabaya","code":"","name":"Gubeng","kind":"District"},"geometry":{"type":"Point","coordinates":[112.76106560600005,-7.284505921499971]},"id":null},{"type":"Feature","properties":{"parent_code":"3578","parent_name":"Kota Surabaya","code":"","name":"Sukolilo","kind":"District"},"geometry":{"type":"Point","coordinates":[112.80438879150006,-7.2890881539999555]},"id":null},{"type":"Feature","properties":{"parent_code":"3578","parent_name":"Kota Surabaya","code":"","name":"Sawahan","kind":"District"},"geometry":{"type":"Point","coordinates":[112.72141490650012,-7.27353576149997]},"id":null},{"type":"Feature","properties":{"parent_code":"3578","parent_name":"Kota Surabaya","code":"","name":"Genteng","kind":"District"},"geometry":{"type":"Point","coordinates":[112.74321706900002,-7.26045902599995]},"id":null},{"type":"Feature","properties":{"parent_code":"3578","parent_name":"Kota Surabaya","code":"","name":"Simokerto","kind":"District"},"geometry":{"type":"Point","coordinates":[112.75368259700008,-7.239619554499939]},"id":null},{"type":"Feature","properties":{"parent_code":"3578","parent_name":"Kota Surabaya","code":"","name":"Pabean Cantian","kind":"District"},"geometry":{"type":"Point","coordinates":[112.73241475950005,-7.22230644749996]},"id":null},{"type":"Feature","properties":{"parent_code":"3578","parent_name":"Kota Surabaya","code":"","name":"Tambaksari","kind":"District"},"geometry":{"type":"Point","coordinates":[112.76966796050004,-7.251079683499967]},"id":null},{"type":"Feature","properties":{"parent_code":"3578","parent_name":"Kota Surabaya","code":"","name":"Krembangan","kind":"District"},"geometry":{"type":"Point","coordinates":[112.72441175350008,-7.226985867499934]},"id":null},{"type":"Feature","properties":{"parent_code":"3578","parent_name":"Kota Surabaya","code":"","name":"Semampir","kind":"District"},"geometry":{"type":"Point","coordinates":[112.74910038650006,-7.214735015999963]},"id":null},{"type":"Feature","properties":{"parent_code":"3578","parent_name":"Kota Surabaya","code":"","name":"Bubutan","kind":"District"},"geometry":{"type":"Point","coordinates":[112.72888824350008,-7.2466119654999375]},"id":null},{"type":"Feature","properties":{"parent_code":"3578","parent_name":"Kota Surabaya","code":"","name":"Tandes","kind":"District"},"geometry":{"type":"Point","coordinates":[112.67322496150007,-7.256860121499955]},"id":null}]}