{"type":"FeatureCollection","features":[{"type":"Feature","properties":{"parent_code":"1811","parent_name":"Mesuji","code":"","name":"Mesuji Timur","kind":"District"},"geometry":{"type":"Point","coordinates":[105.38605518200006,-4.071050568999965]},"id":null},{"type":"Feature","properties":{"parent_code":"1811","parent_name":"Mesuji","code":"","name":"Rawa Jitu Utara","kind":"District"},"geometry":{"type":"Point","coordinates":[105.63953920300006,-4.131192570499934]},"id":null},{"type":"Feature","properties":{"parent_code":"1811","parent_name":"Mesuji","code":"","name":"Mesuji","kind":"District"},"geometry":{"type":"Point","coordinates":[105.49592904050007,-3.889945127499942]},"id":null},{"type":"Feature","properties":{"parent_code":"1811","parent_name":"Mesuji","code":"","name":"Panca Jaya","kind":"District"},"geometry":{"type":"Point","coordinates":[105.27375765800005,-3.945567194499972]},"id":null},{"type":"Feature","properties":{"parent_code":"1811","parent_name":"Mesuji","code":"","name":"Tanjung Raya","kind":"District"},"geometry":{"type":"Point","coordinates":[105.37599319350005,-3.872225894999958]},"id":null},{"type":"Feature","properties":{"parent_code":"1811","parent_name":"Mesuji","code":"","name":"Way Serdang","kind":"District"},"geometry":{"type":"Point","coordinates":[105.12512817550004,-4.115507534999949]},"id":null},{"type":"Feature","properties":{"parent_code":"1811","parent_name":"Mesuji","code":"","name":"Simpang Pematang","kind":"District"},"geometry":{"type":"Point","coordinates":[105.19197366800006,-3.9643357819999494]},"id":null}]}