{"type":"FeatureCollection","features":[{"type":"Feature","properties":{"parent_code":"1812","parent_name":"Tulang Bawang Barat","code":"","name":"Batu Putih","kind":"District"},"geometry":{"type":"Point","coordinates":[105.03311901150005,-4.349505299999976]},"id":null},{"type":"Feature","properties":{"parent_code":"1812","parent_name":"Tulang Bawang Barat","code":"","name":"Tulang Bawang Udik","kind":"District"},"geometry":{"type":"Point","coordinates":[105.01122213800005,-4.557959124499945]},"id":null},{"type":"Feature","properties":{"parent_code":"1812","parent_name":"Tulang Bawang Barat","code":"","name":"Gunung Terang","kind":"District"},"geometry":{"type":"Point","coordinates":[105.07817065300009,-4.308092530499948]},"id":null},{"type":"Feature","properties":{"parent_code":"1812","parent_name":"Tulang Bawang Barat","code":"","name":"Tulang Bawang Tengah","kind":"District"},"geometry":{"type":"Point","coordinates":[105.10897683450008,-4.553783442499963]},"id":null},{"type":"Feature","properties":{"parent_code":"1812","parent_name":"Tulang Bawang Barat","code":"","name":"Tumijajar","kind":"District"},"geometry":{"type":"Point","coordinates":[105.09300814300005,-4.6685304824999605]},"id":null},{"type":"Feature","properties":{"parent_code":"1812","parent_name":"Tulang Bawang Barat","code":"","name":"Lambu Kibang","kind":"District"},"geometry":{"type":"Point","coordinates":[105.17373616100005,-4.358000554499938]},"id":null},{"type":"Feature","properties":{"parent_code":"1812","parent_name":"Tulang Bawang Barat","code":"","name":"Pagar Dewa","kind":"District"},"geometry":{"type":"Point","coordinates":[105.14193460750005,-4.395447657499943]},"id":null},{"type":"Feature","properties":{"parent_code":"1812","parent_name":"Tulang Bawang Barat","code":"","name":"Gunung Agung","kind":"District"},"geometry":{"type":"Point","coordinates":[105.05087404050005,-4.223610490499965]},"id":null},{"type":"Feature","properties":{"parent_code":"1812","parent_name":"Tulang Bawang Barat","code":"","name":"Way Kenanga","kind":"District"},"geometry":{"type":"Point","coordinates":[105.17955747100007,-4.238713663499965]},"id":null}]}