{"type":"FeatureCollection","features":[{"type":"Feature","properties":{"parent_code":"6212","parent_name":"Murung Raya","code":"","name":"Barito Tuhup Raya","kind":"District"},"geometry":{"type":"Point","coordinates":[114.91109779250007,-0.3748424384999395]},"id":null},{"type":"Feature","properties":{"parent_code":"6212","parent_name":"Murung Raya","code":"","name":"Tanah Siang Selatan","kind":"District"},"geometry":{"type":"Point","coordinates":[114.46940122700005,-0.6578940834999685]},"id":null},{"type":"Feature","properties":{"parent_code":"6212","parent_name":"Murung Raya","code":"","name":"Permata Intan","kind":"District"},"geometry":{"type":"Point","coordinates":[114.27228885250003,-0.669451921499977]},"id":null},{"type":"Feature","properties":{"parent_code":"6212","parent_name":"Murung Raya","code":"","name":"Sumber Barito","kind":"District"},"geometry":{"type":"Point","coordinates":[114.11537988550003,-0.460488970499938]},"id":null},{"type":"Feature","properties":{"parent_code":"6212","parent_name":"Murung Raya","code":"","name":"Sungai Babuat","kind":"District"},"geometry":{"type":"Point","coordinates":[114.37648888350009,-0.528837793999941]},"id":null},{"type":"Feature","properties":{"parent_code":"6212","parent_name":"Murung Raya","code":"","name":"Seribu Riam","kind":"District"},"geometry":{"type":"Point","coordinates":[113.74420851150006,0.108306972000065]},"id":null},{"type":"Feature","properties":{"parent_code":"6212","parent_name":"Murung Raya","code":"","name":"Tanah Siang","kind":"District"},"geometry":{"type":"Point","coordinates":[114.51838800400009,-0.3629508564999635]},"id":null},{"type":"Feature","properties":{"parent_code":"6212","parent_name":"Murung Raya","code":"","name":"Laung Tuhup","kind":"District"},"geometry":{"type":"Point","coordinates":[114.70237451250006,-0.4055741439999565]},"id":null},{"type":"Feature","properties":{"parent_code":"6212","parent_name":"Murung Raya","code":"","name":"Murung","kind":"District"},"geometry":{"type":"Point","coordinates":[114.52181114800004,-0.7131732014999554]},"id":null},{"type":"Feature","properties":{"parent_code":"6212","parent_name":"Murung Raya","code":"","name":"Uut Murung","kind":"District"},"geometry":{"type":"Point","coordinates":[114.57857091500006,0.259531377000059]},"id":null}]}