{"type":"FeatureCollection","features":[{"type":"Feature","properties":{"parent_code":"1371","parent_name":"Kota Padang","code":"","name":"Kuranji","kind":"District"},"geometry":{"type":"Point","coordinates":[100.41676243400005,-0.892692560999961]},"id":null},{"type":"Feature","properties":{"parent_code":"1371","parent_name":"Kota Padang","code":"","name":"Lubuk Kilangan","kind":"District"},"geometry":{"type":"Point","coordinates":[100.49269123200006,-0.9495491249999475]},"id":null},{"type":"Feature","properties":{"parent_code":"1371","parent_name":"Kota Padang","code":"","name":"Pauh","kind":"District"},"geometry":{"type":"Point","coordinates":[100.47823822600006,-0.8704551059999515]},"id":null},{"type":"Feature","properties":{"parent_code":"1371","parent_name":"Kota Padang","code":"","name":"Padang Selatan","kind":"District"},"geometry":{"type":"Point","coordinates":[100.26227332650006,-0.9941259564999876]},"id":null},{"type":"Feature","properties":{"parent_code":"1371","parent_name":"Kota Padang","code":"","name":"Padang Timur","kind":"District"},"geometry":{"type":"Point","coordinates":[100.38119768750005,-0.945503910999946]},"id":null},{"type":"Feature","properties":{"parent_code":"1371","parent_name":"Kota Padang","code":"","name":"Bungus Teluk Kabung","kind":"District"},"geometry":{"type":"Point","coordinates":[100.32740007450008,-1.0599882739999484]},"id":null},{"type":"Feature","properties":{"parent_code":"1371","parent_name":"Kota Padang","code":"","name":"Lubuk Begalung","kind":"District"},"geometry":{"type":"Point","coordinates":[100.40488100200005,-0.9925011924999579]},"id":null},{"type":"Feature","properties":{"parent_code":"1371","parent_name":"Kota Padang","code":"","name":"Padang Barat","kind":"District"},"geometry":{"type":"Point","coordinates":[100.35628682300006,-0.944822336999948]},"id":null},{"type":"Feature","properties":{"parent_code":"1371","parent_name":"Kota Padang","code":"","name":"Padang Utara","kind":"District"},"geometry":{"type":"Point","coordinates":[100.36090960500007,-0.91346068699994]},"id":null},{"type":"Feature","properties":{"parent_code":"1371","parent_name":"Kota Padang","code":"","name":"Nanggalo","kind":"District"},"geometry":{"type":"Point","coordinates":[100.36906593500007,-0.898295803499934]},"id":null},{"type":"Feature","properties":{"parent_code":"1371","parent_name":"Kota Padang","code":"","name":"Koto Tangah","kind":"District"},"geometry":{"type":"Point","coordinates":[100.35740599150006,-0.8092568699999275]},"id":null}]}