{"type":"FeatureCollection","features":[{"type":"Feature","properties":{"parent_code":"6106","parent_name":"Kapuas Hulu","code":"","name":"Putussibau Utara","kind":"District"},"geometry":{"type":"Point","coordinates":[113.11589733250003,1.130565475500049]},"id":null},{"type":"Feature","properties":{"parent_code":"6106","parent_name":"Kapuas Hulu","code":"","name":"Embaloh Hulu","kind":"District"},"geometry":{"type":"Point","coordinates":[112.63531540550002,1.2934506870000464]},"id":null},{"type":"Feature","properties":{"parent_code":"6106","parent_name":"Kapuas Hulu","code":"","name":"Bunut Hilir","kind":"District"},"geometry":{"type":"Point","coordinates":[112.5417665325001,0.7169695155000685]},"id":null},{"type":"Feature","properties":{"parent_code":"6106","parent_name":"Kapuas Hulu","code":"","name":"Bika","kind":"District"},"geometry":{"type":"Point","coordinates":[112.80678774700004,0.7630255220000495]},"id":null},{"type":"Feature","properties":{"parent_code":"6106","parent_name":"Kapuas Hulu","code":"","name":"Embaloh Hilir","kind":"District"},"geometry":{"type":"Point","coordinates":[112.60946286100005,0.905430800000033]},"id":null},{"type":"Feature","properties":{"parent_code":"6106","parent_name":"Kapuas Hulu","code":"","name":"Hulu Gurung","kind":"District"},"geometry":{"type":"Point","coordinates":[112.29141696500005,0.3887061630000515]},"id":null},{"type":"Feature","properties":{"parent_code":"6106","parent_name":"Kapuas Hulu","code":"","name":"Selimbau","kind":"District"},"geometry":{"type":"Point","coordinates":[112.20462596900006,0.691685014500014]},"id":null},{"type":"Feature","properties":{"parent_code":"6106","parent_name":"Kapuas Hulu","code":"","name":"Bunut Hulu","kind":"District"},"geometry":{"type":"Point","coordinates":[112.78542555700005,0.3831703705000675]},"id":null},{"type":"Feature","properties":{"parent_code":"6106","parent_name":"Kapuas Hulu","code":"","name":"Jongkong","kind":"District"},"geometry":{"type":"Point","coordinates":[112.35636266450007,0.6684826935000385]},"id":null},{"type":"Feature","properties":{"parent_code":"6106","parent_name":"Kapuas Hulu","code":"","name":"Seberuang","kind":"District"},"geometry":{"type":"Point","coordinates":[112.05413015800008,0.360148625500045]},"id":null},{"type":"Feature","properties":{"parent_code":"6106","parent_name":"Kapuas Hulu","code":"","name":"Batang Lupar","kind":"District"},"geometry":{"type":"Point","coordinates":[112.27327035500008,1.0872398635000595]},"id":null},{"type":"Feature","properties":{"parent_code":"6106","parent_name":"Kapuas Hulu","code":"","name":"Semitau","kind":"District"},"geometry":{"type":"Point","coordinates":[111.86405388350008,0.584474969500036]},"id":null},{"type":"Feature","properties":{"parent_code":"6106","parent_name":"Kapuas Hulu","code":"","name":"Silat Hilir","kind":"District"},"geometry":{"type":"Point","coordinates":[111.81900392250006,0.348510211000075]},"id":null},{"type":"Feature","properties":{"parent_code":"6106","parent_name":"Kapuas Hulu","code":"","name":"Silat Hulu","kind":"District"},"geometry":{"type":"Point","coordinates":[112.23445014350006,0.20239315250006498]},"id":null},{"type":"Feature","properties":{"parent_code":"6106","parent_name":"Kapuas Hulu","code":"","name":"Empanang","kind":"District"},"geometry":{"type":"Point","coordinates":[111.79713841450007,0.8329078070000545]},"id":null},{"type":"Feature","properties":{"parent_code":"6106","parent_name":"Kapuas Hulu","code":"","name":"Badau","kind":"District"},"geometry":{"type":"Point","coordinates":[111.95811408600005,0.980050409500052]},"id":null},{"type":"Feature","properties":{"parent_code":"6106","parent_name":"Kapuas Hulu","code":"","name":"Boyan Tanjung","kind":"District"},"geometry":{"type":"Point","coordinates":[112.50399515100008,0.41554347850004053]},"id":null},{"type":"Feature","properties":{"parent_code":"6106","parent_name":"Kapuas Hulu","code":"","name":"Putussibau Selatan","kind":"District"},"geometry":{"type":"Point","coordinates":[113.53182701900005,0.9327013110000455]},"id":null},{"type":"Feature","properties":{"parent_code":"6106","parent_name":"Kapuas Hulu","code":"","name":"Kalis","kind":"District"},"geometry":{"type":"Point","coordinates":[113.21085023250004,0.4910683980000385]},"id":null},{"type":"Feature","properties":{"parent_code":"6106","parent_name":"Kapuas Hulu","code":"","name":"Suhaid","kind":"District"},"geometry":{"type":"Point","coordinates":[112.03850896800009,0.6813319310000455]},"id":null},{"type":"Feature","properties":{"parent_code":"6106","parent_name":"Kapuas Hulu","code":"","name":"Puring Kencana","kind":"District"},"geometry":{"type":"Point","coordinates":[111.67578890800007,0.970753845000047]},"id":null},{"type":"Feature","properties":{"parent_code":"6106","parent_name":"Kapuas Hulu","code":"","name":"Mentebah","kind":"District"},"geometry":{"type":"Point","coordinates":[112.89294907550004,0.527068144000026]},"id":null},{"type":"Feature","properties":{"parent_code":"6106","parent_name":"Kapuas Hulu","code":"","name":"Pengkadan","kind":"District"},"geometry":{"type":"Point","coordinates":[112.35858555750008,0.49887811350004097]},"id":null}]}