{"type":"FeatureCollection","features":[{"type":"Feature","properties":{"parent_code":"3314","parent_name":"Sragen","code":"","name":"Jenar","kind":"District"},"geometry":{"type":"Point","coordinates":[111.10736491450002,-7.302956030499978]},"id":null},{"type":"Feature","properties":{"parent_code":"3314","parent_name":"Sragen","code":"","name":"Kedawung","kind":"District"},"geometry":{"type":"Point","coordinates":[111.02802304950004,-7.50053856599997]},"id":null},{"type":"Feature","properties":{"parent_code":"3314","parent_name":"Sragen","code":"","name":"Sambirejo","kind":"District"},"geometry":{"type":"Point","coordinates":[111.11200305200002,-7.495427024999975]},"id":null},{"type":"Feature","properties":{"parent_code":"3314","parent_name":"Sragen","code":"","name":"Plupuh","kind":"District"},"geometry":{"type":"Point","coordinates":[110.89631599950002,-7.446217846999929]},"id":null},{"type":"Feature","properties":{"parent_code":"3314","parent_name":"Sragen","code":"","name":"Masaran","kind":"District"},"geometry":{"type":"Point","coordinates":[110.94355936250003,-7.482411295499976]},"id":null},{"type":"Feature","properties":{"parent_code":"3314","parent_name":"Sragen","code":"","name":"Ngrampal","kind":"District"},"geometry":{"type":"Point","coordinates":[111.045998,-7.392968]},"id":null},{"type":"Feature","properties":{"parent_code":"3314","parent_name":"Sragen","code":"","name":"Karangmalang","kind":"District"},"geometry":{"type":"Point","coordinates":[111.020101,-7.4576655]},"id":null},{"type":"Feature","properties":{"parent_code":"3314","parent_name":"Sragen","code":"","name":"Gondang","kind":"District"},"geometry":{"type":"Point","coordinates":[111.10361536750004,-7.430995458499984]},"id":null},{"type":"Feature","properties":{"parent_code":"3314","parent_name":"Sragen","code":"","name":"Sambungmacan","kind":"District"},"geometry":{"type":"Point","coordinates":[111.10158103150002,-7.369923274499964]},"id":null},{"type":"Feature","properties":{"parent_code":"3314","parent_name":"Sragen","code":"","name":"Kalijambe","kind":"District"},"geometry":{"type":"Point","coordinates":[110.81684635900004,-7.433691932499954]},"id":null},{"type":"Feature","properties":{"parent_code":"3314","parent_name":"Sragen","code":"","name":"Sumberlawang","kind":"District"},"geometry":{"type":"Point","coordinates":[110.864956,-7.315340342499981]},"id":null},{"type":"Feature","properties":{"parent_code":"3314","parent_name":"Sragen","code":"","name":"Mondokan","kind":"District"},"geometry":{"type":"Point","coordinates":[110.92851300000001,-7.319271668499965]},"id":null},{"type":"Feature","properties":{"parent_code":"3314","parent_name":"Sragen","code":"","name":"Gemolong","kind":"District"},"geometry":{"type":"Point","coordinates":[110.83769572700001,-7.395323283499948]},"id":null},{"type":"Feature","properties":{"parent_code":"3314","parent_name":"Sragen","code":"","name":"Miri","kind":"District"},"geometry":{"type":"Point","coordinates":[110.81407593400003,-7.3323467819999735]},"id":null},{"type":"Feature","properties":{"parent_code":"3314","parent_name":"Sragen","code":"","name":"Tangen","kind":"District"},"geometry":{"type":"Point","coordinates":[111.05774435200001,-7.299478103999978]},"id":null},{"type":"Feature","properties":{"parent_code":"3314","parent_name":"Sragen","code":"","name":"Sukodono","kind":"District"},"geometry":{"type":"Point","coordinates":[110.97893053300004,-7.3278555]},"id":null},{"type":"Feature","properties":{"parent_code":"3314","parent_name":"Sragen","code":"","name":"Gesi","kind":"District"},"geometry":{"type":"Point","coordinates":[111.00761519200003,-7.33104332199997]},"id":null},{"type":"Feature","properties":{"parent_code":"3314","parent_name":"Sragen","code":"","name":"Sidoharjo","kind":"District"},"geometry":{"type":"Point","coordinates":[110.9622315,-7.419561500499986]},"id":null},{"type":"Feature","properties":{"parent_code":"3314","parent_name":"Sragen","code":"","name":"Tanon","kind":"District"},"geometry":{"type":"Point","coordinates":[110.92296350000001,-7.382589]},"id":null},{"type":"Feature","properties":{"parent_code":"3314","parent_name":"Sragen","code":"","name":"Sragen","kind":"District"},"geometry":{"type":"Point","coordinates":[111.01975651350003,-7.399226778499976]},"id":null}]}