{"type":"FeatureCollection","features":[{"type":"Feature","properties":{"parent_code":"3325","parent_name":"Batang","code":"","name":"Reban","kind":"District"},"geometry":{"type":"Point","coordinates":[109.88036608550004,-7.1131462654999495]},"id":null},{"type":"Feature","properties":{"parent_code":"3325","parent_name":"Batang","code":"","name":"Bawang","kind":"District"},"geometry":{"type":"Point","coordinates":[109.92397259000006,-7.130161206999958]},"id":null},{"type":"Feature","properties":{"parent_code":"3325","parent_name":"Batang","code":"","name":"Bandar","kind":"District"},"geometry":{"type":"Point","coordinates":[109.80001402850004,-7.067320680999927]},"id":null},{"type":"Feature","properties":{"parent_code":"3325","parent_name":"Batang","code":"","name":"Blado","kind":"District"},"geometry":{"type":"Point","coordinates":[109.83195311200006,-7.110138558499955]},"id":null},{"type":"Feature","properties":{"parent_code":"3325","parent_name":"Batang","code":"","name":"Limpung","kind":"District"},"geometry":{"type":"Point","coordinates":[109.92320759850008,-7.0249200964999545]},"id":null},{"type":"Feature","properties":{"parent_code":"3325","parent_name":"Batang","code":"","name":"Subah","kind":"District"},"geometry":{"type":"Point","coordinates":[109.87222406600006,-6.96203783149997]},"id":null},{"type":"Feature","properties":{"parent_code":"3325","parent_name":"Batang","code":"","name":"Tersono","kind":"District"},"geometry":{"type":"Point","coordinates":[109.97039693150006,-7.034476174999952]},"id":null},{"type":"Feature","properties":{"parent_code":"3325","parent_name":"Batang","code":"","name":"Gringsing","kind":"District"},"geometry":{"type":"Point","coordinates":[109.99938894800007,-6.95958826149996]},"id":null},{"type":"Feature","properties":{"parent_code":"3325","parent_name":"Batang","code":"","name":"Wonotunggal","kind":"District"},"geometry":{"type":"Point","coordinates":[109.75010567550004,-7.033175328499965]},"id":null},{"type":"Feature","properties":{"parent_code":"3325","parent_name":"Batang","code":"","name":"Banyuputih","kind":"District"},"geometry":{"type":"Point","coordinates":[109.94849887150005,-6.957175114999956]},"id":null},{"type":"Feature","properties":{"parent_code":"3325","parent_name":"Batang","code":"","name":"Kandeman","kind":"District"},"geometry":{"type":"Point","coordinates":[109.77537067550008,-6.9255902734999495]},"id":null},{"type":"Feature","properties":{"parent_code":"3325","parent_name":"Batang","code":"","name":"Pecalungan","kind":"District"},"geometry":{"type":"Point","coordinates":[109.86207638100007,-7.0221933329999615]},"id":null},{"type":"Feature","properties":{"parent_code":"3325","parent_name":"Batang","code":"","name":"Batang","kind":"District"},"geometry":{"type":"Point","coordinates":[109.72860047700004,-6.911901373999939]},"id":null},{"type":"Feature","properties":{"parent_code":"3325","parent_name":"Batang","code":"","name":"Warungasem","kind":"District"},"geometry":{"type":"Point","coordinates":[109.70426944500008,-6.9489622044999635]},"id":null},{"type":"Feature","properties":{"parent_code":"3325","parent_name":"Batang","code":"","name":"Tulis","kind":"District"},"geometry":{"type":"Point","coordinates":[109.81121867750005,-6.953056215499942]},"id":null}]}