{"type":"FeatureCollection","features":[{"type":"Feature","properties":{"parent_code":"11","parent_name":"Aceh","code":"1171","name":"Kota Banda Aceh","kind":"City"},"geometry":{"type":"Point","coordinates":[95.32501562700006,5.564046706500051]},"id":1171},{"type":"Feature","properties":{"parent_code":"11","parent_name":"Aceh","code":"1107","name":"Pidie","kind":"City"},"geometry":{"type":"Point","coordinates":[96.10132306700007,5.122303631000051]},"id":1107},{"type":"Feature","properties":{"parent_code":"11","parent_name":"Aceh","code":"1172","name":"Kota Sabang","kind":"City"},"geometry":{"type":"Point","coordinates":[95.24383672500005,5.9241023370000505]},"id":1172},{"type":"Feature","properties":{"parent_code":"11","parent_name":"Aceh","code":"1108","name":"Aceh Utara","kind":"City"},"geometry":{"type":"Point","coordinates":[97.15149964200006,4.999909870000039]},"id":1108},{"type":"Feature","properties":{"parent_code":"11","parent_name":"Aceh","code":"1175","name":"Kota Subulussalam","kind":"City"},"geometry":{"type":"Point","coordinates":[97.94171282150006,2.754168778000012]},"id":1175},{"type":"Feature","properties":{"parent_code":"11","parent_name":"Aceh","code":"1115","name":"Nagan Raya","kind":"City"},"geometry":{"type":"Point","coordinates":[96.49447270700006,4.181566661000011]},"id":1115},{"type":"Feature","properties":{"parent_code":"11","parent_name":"Aceh","code":"1117","name":"Bener Meriah","kind":"City"},"geometry":{"type":"Point","coordinates":[96.95092921100004,4.775330441500046]},"id":1117},{"type":"Feature","properties":{"parent_code":"11","parent_name":"Aceh","code":"1104","name":"Aceh Tengah","kind":"City"},"geometry":{"type":"Point","coordinates":[96.81264134100005,4.564811200000065]},"id":1104},{"type":"Feature","properties":{"parent_code":"11","parent_name":"Aceh","code":"1103","name":"Aceh Timur","kind":"City"},"geometry":{"type":"Point","coordinates":[97.63812563800005,4.7025522135000415]},"id":1103},{"type":"Feature","properties":{"parent_code":"11","parent_name":"Aceh","code":"1102","name":"Aceh Tenggara","kind":"City"},"geometry":{"type":"Point","coordinates":[97.61787086650008,3.338841308000042]},"id":1102},{"type":"Feature","properties":{"parent_code":"11","parent_name":"Aceh","code":"1105","name":"Aceh Barat","kind":"City"},"geometry":{"type":"Point","coordinates":[96.18635020900007,4.42850658200004]},"id":1105},{"type":"Feature","properties":{"parent_code":"11","parent_name":"Aceh","code":"1114","name":"Aceh Jaya","kind":"City"},"geometry":{"type":"Point","coordinates":[95.66227848350005,4.812035908000041]},"id":1114},{"type":"Feature","properties":{"parent_code":"11","parent_name":"Aceh","code":"1109","name":"Simeulue","kind":"City"},"geometry":{"type":"Point","coordinates":[96.03728470550007,2.537515883000026]},"id":1109},{"type":"Feature","properties":{"parent_code":"11","parent_name":"Aceh","code":"1110","name":"Aceh Singkil","kind":"City"},"geometry":{"type":"Point","coordinates":[97.63678766050006,2.2799935740000308]},"id":1110},{"type":"Feature","properties":{"parent_code":"11","parent_name":"Aceh","code":"1118","name":"Pidie Jaya","kind":"City"},"geometry":{"type":"Point","coordinates":[96.19253860250004,5.1032395820000716]},"id":1118},{"type":"Feature","properties":{"parent_code":"11","parent_name":"Aceh","code":"1112","name":"Aceh Barat Daya","kind":"City"},"geometry":{"type":"Point","coordinates":[96.86950939800005,3.8343252655000413]},"id":1112},{"type":"Feature","properties":{"parent_code":"11","parent_name":"Aceh","code":"1116","name":"Aceh Tamiang","kind":"City"},"geometry":{"type":"Point","coordinates":[98.00780977650004,4.205995698500033]},"id":1116},{"type":"Feature","properties":{"parent_code":"11","parent_name":"Aceh","code":"1106","name":"Aceh Besar","kind":"City"},"geometry":{"type":"Point","coordinates":[95.40626874200007,5.422751885500048]},"id":1106},{"type":"Feature","properties":{"parent_code":"11","parent_name":"Aceh","code":"1174","name":"Kota Langsa","kind":"City"},"geometry":{"type":"Point","coordinates":[97.97613256500006,4.483128761000046]},"id":1174},{"type":"Feature","properties":{"parent_code":"11","parent_name":"Aceh","code":"1101","name":"Aceh Selatan","kind":"City"},"geometry":{"type":"Point","coordinates":[97.42573948650005,3.068178011500038]},"id":1101},{"type":"Feature","properties":{"parent_code":"11","parent_name":"Aceh","code":"1111","name":"Bireuen","kind":"City"},"geometry":{"type":"Point","coordinates":[96.62614703700004,5.083089724000047]},"id":1111},{"type":"Feature","properties":{"parent_code":"11","parent_name":"Aceh","code":"1113","name":"Gayo Lues","kind":"City"},"geometry":{"type":"Point","coordinates":[97.31899882700006,3.9778936085000396]},"id":1113},{"type":"Feature","properties":{"parent_code":"11","parent_name":"Aceh","code":"1173","name":"Kota Lhokseumawe","kind":"City"},"geometry":{"type":"Point","coordinates":[97.10250446450007,5.161025405000061]},"id":1173}]}