{"type":"FeatureCollection","features":[{"type":"Feature","properties":{"parent_code":"17","parent_name":"Bengkulu","code":"1706","name":"Muko Muko","kind":"City"},"geometry":{"type":"Point","coordinates":[101.44415636100007,-2.7086401344999445]},"id":1706},{"type":"Feature","properties":{"parent_code":"17","parent_name":"Bengkulu","code":"1701","name":"Bengkulu Selatan","kind":"City"},"geometry":{"type":"Point","coordinates":[103.04254866450006,-4.359301031999934]},"id":1701},{"type":"Feature","properties":{"parent_code":"17","parent_name":"Bengkulu","code":"1704","name":"Kaur","kind":"City"},"geometry":{"type":"Point","coordinates":[103.43039166150007,-4.590607409999933]},"id":1704},{"type":"Feature","properties":{"parent_code":"17","parent_name":"Bengkulu","code":"1771","name":"Kota Bengkulu","kind":"City"},"geometry":{"type":"Point","coordinates":[102.27528016450006,-3.8607474979999665]},"id":1771},{"type":"Feature","properties":{"parent_code":"17","parent_name":"Bengkulu","code":"1707","name":"Lebong","kind":"City"},"geometry":{"type":"Point","coordinates":[102.20985015600007,-3.0526696174999586]},"id":1707},{"type":"Feature","properties":{"parent_code":"17","parent_name":"Bengkulu","code":"1705","name":"Seluma","kind":"City"},"geometry":{"type":"Point","coordinates":[102.65199092150007,-4.078065676499975]},"id":1705},{"type":"Feature","properties":{"parent_code":"17","parent_name":"Bengkulu","code":"1702","name":"Rejang Lebong","kind":"City"},"geometry":{"type":"Point","coordinates":[102.68736001050004,-3.442416121999941]},"id":1702},{"type":"Feature","properties":{"parent_code":"17","parent_name":"Bengkulu","code":"1703","name":"Bengkulu Utara","kind":"City"},"geometry":{"type":"Point","coordinates":[101.72477399600004,-4.121579929499973]},"id":1703},{"type":"Feature","properties":{"parent_code":"17","parent_name":"Bengkulu","code":"1709","name":"Bengkulu Tengah","kind":"City"},"geometry":{"type":"Point","coordinates":[102.40968021050006,-3.67378012049997]},"id":1709},{"type":"Feature","properties":{"parent_code":"17","parent_name":"Bengkulu","code":"1708","name":"Kepahiang","kind":"City"},"geometry":{"type":"Point","coordinates":[102.62286629600001,-3.648256442999966]},"id":1708}]}