{"type":"FeatureCollection","features":[{"type":"Feature","properties":{"parent_code":"34","parent_name":"Daerah Istimewa Yogyakarta","code":"3404","name":"Sleman","kind":"City"},"geometry":{"type":"Point","coordinates":[110.38130223850007,-7.688892059999944]},"id":3404},{"type":"Feature","properties":{"parent_code":"34","parent_name":"Daerah Istimewa Yogyakarta","code":"3402","name":"Bantul","kind":"City"},"geometry":{"type":"Point","coordinates":[110.36640397300005,-7.897890982499945]},"id":3402},{"type":"Feature","properties":{"parent_code":"34","parent_name":"Daerah Istimewa Yogyakarta","code":"3471","name":"Kota Yogyakarta","kind":"City"},"geometry":{"type":"Point","coordinates":[110.37495418250006,-7.80327023199996]},"id":3471},{"type":"Feature","properties":{"parent_code":"34","parent_name":"Daerah Istimewa Yogyakarta","code":"3401","name":"Kulon Progo","kind":"City"},"geometry":{"type":"Point","coordinates":[110.13863539400006,-7.8137565439999435]},"id":3401},{"type":"Feature","properties":{"parent_code":"34","parent_name":"Daerah Istimewa Yogyakarta","code":"3403","name":"Gunungkidul","kind":"City"},"geometry":{"type":"Point","coordinates":[110.58484265350006,-7.993689579999938]},"id":3403}]}