{"type":"FeatureCollection","features":[{"type":"Feature","properties":{"parent_code":"65","parent_name":"Kalimantan Utara","code":"6571","name":"Kota Tarakan","kind":"City"},"geometry":{"type":"Point","coordinates":[117.59184305450003,3.341007813000033]},"id":6571},{"type":"Feature","properties":{"parent_code":"65","parent_name":"Kalimantan Utara","code":"6504","name":"Tana Tidung","kind":"City"},"geometry":{"type":"Point","coordinates":[117.25124061850005,3.55485123750006]},"id":6504},{"type":"Feature","properties":{"parent_code":"65","parent_name":"Kalimantan Utara","code":"6503","name":"Nunukan","kind":"City"},"geometry":{"type":"Point","coordinates":[116.74218285850003,3.907896434000037]},"id":6503},{"type":"Feature","properties":{"parent_code":"65","parent_name":"Kalimantan Utara","code":"6501","name":"Bulungan","kind":"City"},"geometry":{"type":"Point","coordinates":[116.98863198900011,2.843475616000063]},"id":6501},{"type":"Feature","properties":{"parent_code":"65","parent_name":"Kalimantan Utara","code":"6502","name":"Malinau","kind":"City"},"geometry":{"type":"Point","coordinates":[115.67783850450007,2.6186364405000324]},"id":6502}]}