{"type":"FeatureCollection","features":[{"type":"Feature","properties":{"parent_code":"72","parent_name":"Sulawesi Tengah","code":"7211","name":"Banggai Laut","kind":"City"},"geometry":{"type":"Point","coordinates":[123.61449491050007,-1.8432837304999625]},"id":7211},{"type":"Feature","properties":{"parent_code":"72","parent_name":"Sulawesi Tengah","code":"7205","name":"Buol","kind":"City"},"geometry":{"type":"Point","coordinates":[121.53835264500003,0.9962743365000505]},"id":7205},{"type":"Feature","properties":{"parent_code":"72","parent_name":"Sulawesi Tengah","code":"7212","name":"Morowali Utara","kind":"City"},"geometry":{"type":"Point","coordinates":[121.43781161650008,-1.8423448579999329]},"id":7212},{"type":"Feature","properties":{"parent_code":"72","parent_name":"Sulawesi Tengah","code":"7201","name":"Banggai","kind":"City"},"geometry":{"type":"Point","coordinates":[122.65560386950006,-1.021034684999961]},"id":7201},{"type":"Feature","properties":{"parent_code":"72","parent_name":"Sulawesi Tengah","code":"7207","name":"Banggai Kepulauan","kind":"City"},"geometry":{"type":"Point","coordinates":[123.08382377900006,-1.4401294674999576]},"id":7207},{"type":"Feature","properties":{"parent_code":"72","parent_name":"Sulawesi Tengah","code":"7206","name":"Morowali","kind":"City"},"geometry":{"type":"Point","coordinates":[122.30991976900003,-2.894618154999961]},"id":7206},{"type":"Feature","properties":{"parent_code":"72","parent_name":"Sulawesi Tengah","code":"7208","name":"Parigi Moutong","kind":"City"},"geometry":{"type":"Point","coordinates":[120.62508641850008,-0.23690108349995853]},"id":7208},{"type":"Feature","properties":{"parent_code":"72","parent_name":"Sulawesi Tengah","code":"7271","name":"Kota Palu","kind":"City"},"geometry":{"type":"Point","coordinates":[119.89966933750003,-0.799383978499975]},"id":7271},{"type":"Feature","properties":{"parent_code":"72","parent_name":"Sulawesi Tengah","code":"7209","name":"Tojo Una Una","kind":"City"},"geometry":{"type":"Point","coordinates":[121.64291715600007,-0.8861314464999736]},"id":7209},{"type":"Feature","properties":{"parent_code":"72","parent_name":"Sulawesi Tengah","code":"7203","name":"Donggala","kind":"City"},"geometry":{"type":"Point","coordinates":[119.81490847200007,-0.35012108549994997]},"id":7203},{"type":"Feature","properties":{"parent_code":"72","parent_name":"Sulawesi Tengah","code":"7204","name":"Toli Toli","kind":"City"},"geometry":{"type":"Point","coordinates":[120.6575251425001,0.981076961500037]},"id":7204},{"type":"Feature","properties":{"parent_code":"72","parent_name":"Sulawesi Tengah","code":"7210","name":"Sigi","kind":"City"},"geometry":{"type":"Point","coordinates":[120.0080766635001,-1.4559714944999487]},"id":7210},{"type":"Feature","properties":{"parent_code":"72","parent_name":"Sulawesi Tengah","code":"7202","name":"Poso","kind":"City"},"geometry":{"type":"Point","coordinates":[120.52261251550004,-1.674922708999958]},"id":7202}]}