{"type":"FeatureCollection","features":[{"type":"Feature","properties":{"parent_code":"81","parent_name":"Maluku","code":"8103","name":"Kepulauan Tanimbar","kind":"City"},"geometry":{"type":"Point","coordinates":[129.3319023575001,-7.48864858099995]},"id":8103},{"type":"Feature","properties":{"parent_code":"81","parent_name":"Maluku","code":"8107","name":"Kepulauan Aru","kind":"City"},"geometry":{"type":"Point","coordinates":[134.48007035500007,-6.21318075749997]},"id":8107},{"type":"Feature","properties":{"parent_code":"81","parent_name":"Maluku","code":"8101","name":"Maluku Tengah","kind":"City"},"geometry":{"type":"Point","coordinates":[129.10678893800008,-4.85837539049993]},"id":8101},{"type":"Feature","properties":{"parent_code":"81","parent_name":"Maluku","code":"8109","name":"Buru Selatan","kind":"City"},"geometry":{"type":"Point","coordinates":[126.61969033150007,-3.5084651109999356]},"id":8109},{"type":"Feature","properties":{"parent_code":"81","parent_name":"Maluku","code":"8106","name":"Seram Bagian Barat","kind":"City"},"geometry":{"type":"Point","coordinates":[128.15640317500004,-3.201059899499967]},"id":8106},{"type":"Feature","properties":{"parent_code":"81","parent_name":"Maluku","code":"8102","name":"Maluku Tenggara","kind":"City"},"geometry":{"type":"Point","coordinates":[132.8098492690001,-5.655189158999946]},"id":8102},{"type":"Feature","properties":{"parent_code":"81","parent_name":"Maluku","code":"8172","name":"Kota Tual","kind":"City"},"geometry":{"type":"Point","coordinates":[132.37184104900007,-5.441120653999974]},"id":8172},{"type":"Feature","properties":{"parent_code":"81","parent_name":"Maluku","code":"8108","name":"Maluku Barat Daya","kind":"City"},"geometry":{"type":"Point","coordinates":[127.90804351100007,-7.702971499499986]},"id":8108},{"type":"Feature","properties":{"parent_code":"81","parent_name":"Maluku","code":"8104","name":"Buru","kind":"City"},"geometry":{"type":"Point","coordinates":[126.68362574250006,-3.435439981499968]},"id":8104},{"type":"Feature","properties":{"parent_code":"81","parent_name":"Maluku","code":"8171","name":"Kota Ambon","kind":"City"},"geometry":{"type":"Point","coordinates":[128.18368465350005,-3.684710367999969]},"id":8171},{"type":"Feature","properties":{"parent_code":"81","parent_name":"Maluku","code":"8105","name":"Seram Bagian Timur","kind":"City"},"geometry":{"type":"Point","coordinates":[130.86113701750003,-3.8798961569999344]},"id":8105}]}