{"type":"FeatureCollection","features":[{"type":"Feature","properties":{"parent_code":"6502","parent_name":"Malinau","code":"","name":"Kayan Hilir","kind":"District"},"geometry":{"type":"Point","coordinates":[115.48456288750005,1.8711096245000105]},"id":null},{"type":"Feature","properties":{"parent_code":"6502","parent_name":"Malinau","code":"","name":"Kayan Hulu","kind":"District"},"geometry":{"type":"Point","coordinates":[114.81220185450007,1.6347081595000361]},"id":null},{"type":"Feature","properties":{"parent_code":"6502","parent_name":"Malinau","code":"","name":"Malinau Kota","kind":"District"},"geometry":{"type":"Point","coordinates":[116.65064786000005,3.574340414500057]},"id":null},{"type":"Feature","properties":{"parent_code":"6502","parent_name":"Malinau","code":"","name":"Pujungan","kind":"District"},"geometry":{"type":"Point","coordinates":[115.70747406250001,2.650132456000051]},"id":null},{"type":"Feature","properties":{"parent_code":"6502","parent_name":"Malinau","code":"","name":"Malinau Barat","kind":"District"},"geometry":{"type":"Point","coordinates":[116.59991304700009,3.34843809450004]},"id":null},{"type":"Feature","properties":{"parent_code":"6502","parent_name":"Malinau","code":"","name":"Sungai Boh","kind":"District"},"geometry":{"type":"Point","coordinates":[115.32948425900008,1.4699786790000355]},"id":null},{"type":"Feature","properties":{"parent_code":"6502","parent_name":"Malinau","code":"","name":"Malinau Selatan","kind":"District"},"geometry":{"type":"Point","coordinates":[116.49554662500009,3.060547314000047]},"id":null},{"type":"Feature","properties":{"parent_code":"6502","parent_name":"Malinau","code":"","name":"Malinau Utara","kind":"District"},"geometry":{"type":"Point","coordinates":[116.52659571350004,3.730648380000048]},"id":null},{"type":"Feature","properties":{"parent_code":"6502","parent_name":"Malinau","code":"","name":"Mentarang","kind":"District"},"geometry":{"type":"Point","coordinates":[116.32237004550007,3.7292843605000243]},"id":null},{"type":"Feature","properties":{"parent_code":"6502","parent_name":"Malinau","code":"","name":"Sungai Tubu","kind":"District"},"geometry":{"type":"Point","coordinates":[116.13004892550003,3.292386802500033]},"id":null},{"type":"Feature","properties":{"parent_code":"6502","parent_name":"Malinau","code":"","name":"Malinau Selatan Hilir","kind":"District"},"geometry":{"type":"Point","coordinates":[116.52583506300005,3.3206630490000464]},"id":null},{"type":"Feature","properties":{"parent_code":"6502","parent_name":"Malinau","code":"","name":"Malinau Selatan Hulu","kind":"District"},"geometry":{"type":"Point","coordinates":[116.21326004250005,2.9423269425000456]},"id":null},{"type":"Feature","properties":{"parent_code":"6502","parent_name":"Malinau","code":"","name":"Bahau Hulu","kind":"District"},"geometry":{"type":"Point","coordinates":[115.76110462400004,3.118086318000053]},"id":null},{"type":"Feature","properties":{"parent_code":"6502","parent_name":"Malinau","code":"","name":"Mentarang Hulu","kind":"District"},"geometry":{"type":"Point","coordinates":[116.15757194550008,3.795658233500027]},"id":null},{"type":"Feature","properties":{"parent_code":"6502","parent_name":"Malinau","code":"","name":"Kayan Selatan","kind":"District"},"geometry":{"type":"Point","coordinates":[115.04084190250006,1.580833578500034]},"id":null}]}