{"type":"FeatureCollection","features":[{"type":"Feature","properties":{"parent_code":"1501","parent_name":"Kerinci","code":"","name":"Gunung Kerinci","kind":"District"},"geometry":{"type":"Point","coordinates":[101.26813755200007,-1.906435371999947]},"id":null},{"type":"Feature","properties":{"parent_code":"1501","parent_name":"Kerinci","code":"","name":"Batang Merangin","kind":"District"},"geometry":{"type":"Point","coordinates":[101.69491829850006,-2.1211352339999507]},"id":null},{"type":"Feature","properties":{"parent_code":"1501","parent_name":"Kerinci","code":"","name":"Sitinjau Laut","kind":"District"},"geometry":{"type":"Point","coordinates":[101.49169442350006,-2.056733046999966]},"id":null},{"type":"Feature","properties":{"parent_code":"1501","parent_name":"Kerinci","code":"","name":"Air Hangat","kind":"District"},"geometry":{"type":"Point","coordinates":[101.37280391600007,-1.9830625884999336]},"id":null},{"type":"Feature","properties":{"parent_code":"1501","parent_name":"Kerinci","code":"","name":"Keliling Danau","kind":"District"},"geometry":{"type":"Point","coordinates":[101.41199523050005,-2.249429586999952]},"id":null},{"type":"Feature","properties":{"parent_code":"1501","parent_name":"Kerinci","code":"","name":"Kayu Aro","kind":"District"},"geometry":{"type":"Point","coordinates":[101.31791921700005,-1.773016636499932]},"id":null},{"type":"Feature","properties":{"parent_code":"1501","parent_name":"Kerinci","code":"","name":"Air Hangat Timur","kind":"District"},"geometry":{"type":"Point","coordinates":[101.49362893000006,-2.002016709499941]},"id":null},{"type":"Feature","properties":{"parent_code":"1501","parent_name":"Kerinci","code":"","name":"Depati Tujuh","kind":"District"},"geometry":{"type":"Point","coordinates":[101.35320150300007,-2.0127386389999344]},"id":null},{"type":"Feature","properties":{"parent_code":"1501","parent_name":"Kerinci","code":"","name":"Siulak Mukai","kind":"District"},"geometry":{"type":"Point","coordinates":[101.48678491250007,-1.854036346499953]},"id":null},{"type":"Feature","properties":{"parent_code":"1501","parent_name":"Kerinci","code":"","name":"Gunung Tujuh","kind":"District"},"geometry":{"type":"Point","coordinates":[101.37186051700007,-1.728281193999948]},"id":null},{"type":"Feature","properties":{"parent_code":"1501","parent_name":"Kerinci","code":"","name":"Siulak","kind":"District"},"geometry":{"type":"Point","coordinates":[101.29118888900007,-1.9765161609999495]},"id":null},{"type":"Feature","properties":{"parent_code":"1501","parent_name":"Kerinci","code":"","name":"Kayu Aro Barat","kind":"District"},"geometry":{"type":"Point","coordinates":[101.21946646350005,-1.763044751499962]},"id":null},{"type":"Feature","properties":{"parent_code":"1501","parent_name":"Kerinci","code":"","name":"Bukitkerman","kind":"District"},"geometry":{"type":"Point","coordinates":[101.49418091650006,-2.2410628084999753]},"id":null},{"type":"Feature","properties":{"parent_code":"1501","parent_name":"Kerinci","code":"","name":"Air Hangat Barat","kind":"District"},"geometry":{"type":"Point","coordinates":[101.34287783650007,-1.992602959999942]},"id":null},{"type":"Feature","properties":{"parent_code":"1501","parent_name":"Kerinci","code":"","name":"Tanah Cogok","kind":"District"},"geometry":{"type":"Point","coordinates":[101.46740980500007,-2.118208008999943]},"id":null},{"type":"Feature","properties":{"parent_code":"1501","parent_name":"Kerinci","code":"","name":"Danau Kerinci Barat","kind":"District"},"geometry":{"type":"Point","coordinates":[101.43434196050006,-2.1418630309999576]},"id":null},{"type":"Feature","properties":{"parent_code":"1501","parent_name":"Kerinci","code":"","name":"Danau Kerinci","kind":"District"},"geometry":{"type":"Point","coordinates":[101.57947770550007,-2.0309159824999483]},"id":null},{"type":"Feature","properties":{"parent_code":"1501","parent_name":"Kerinci","code":"","name":"Gunung Raya","kind":"District"},"geometry":{"type":"Point","coordinates":[101.60054426400006,-2.327496177499938]},"id":null}]}