{"type":"FeatureCollection","features":[{"type":"Feature","properties":{"parent_code":"1571","parent_name":"Kota Jambi","code":"","name":"Kota Baru","kind":"District"},"geometry":{"type":"Point","coordinates":[103.60281243000006,-1.6564153494999516]},"id":null},{"type":"Feature","properties":{"parent_code":"1571","parent_name":"Kota Jambi","code":"","name":"Jelutung","kind":"District"},"geometry":{"type":"Point","coordinates":[103.61100256650005,-1.618719339999956]},"id":null},{"type":"Feature","properties":{"parent_code":"1571","parent_name":"Kota Jambi","code":"","name":"Pelayangan","kind":"District"},"geometry":{"type":"Point","coordinates":[103.62737845500007,-1.5674400284999594]},"id":null},{"type":"Feature","properties":{"parent_code":"1571","parent_name":"Kota Jambi","code":"","name":"Danau Teluk","kind":"District"},"geometry":{"type":"Point","coordinates":[103.58929273450008,-1.5688044049999519]},"id":null},{"type":"Feature","properties":{"parent_code":"1571","parent_name":"Kota Jambi","code":"","name":"Alam Barajo","kind":"District"},"geometry":{"type":"Point","coordinates":[103.55723818850004,-1.6417212789999671]},"id":null},{"type":"Feature","properties":{"parent_code":"1571","parent_name":"Kota Jambi","code":"","name":"Jambi Timur","kind":"District"},"geometry":{"type":"Point","coordinates":[103.63382607650007,-1.5830340609999496]},"id":null},{"type":"Feature","properties":{"parent_code":"1571","parent_name":"Kota Jambi","code":"","name":"Pasar Jambi","kind":"District"},"geometry":{"type":"Point","coordinates":[103.61389291800006,-1.5943128359999434]},"id":null},{"type":"Feature","properties":{"parent_code":"1571","parent_name":"Kota Jambi","code":"","name":"Telanaipura","kind":"District"},"geometry":{"type":"Point","coordinates":[103.56174637250007,-1.5936436739999635]},"id":null},{"type":"Feature","properties":{"parent_code":"1571","parent_name":"Kota Jambi","code":"","name":"Jambi Selatan","kind":"District"},"geometry":{"type":"Point","coordinates":[103.63263485400006,-1.625504269499942]},"id":null},{"type":"Feature","properties":{"parent_code":"1571","parent_name":"Kota Jambi","code":"","name":"Danau Sipin","kind":"District"},"geometry":{"type":"Point","coordinates":[103.59401141650005,-1.6043539099999575]},"id":null},{"type":"Feature","properties":{"parent_code":"1571","parent_name":"Kota Jambi","code":"","name":"Paal Merah","kind":"District"},"geometry":{"type":"Point","coordinates":[103.65053329350005,-1.6245713609999375]},"id":null}]}