{"type":"FeatureCollection","features":[{"type":"Feature","properties":{"parent_code":"7304","parent_name":"Jeneponto","code":"","name":"Arungkeke","kind":"District"},"geometry":{"type":"Point","coordinates":[119.81486191800008,-5.6656780489999505]},"id":null},{"type":"Feature","properties":{"parent_code":"7304","parent_name":"Jeneponto","code":"","name":"Bontoramba","kind":"District"},"geometry":{"type":"Point","coordinates":[119.68256505750009,-5.558768562999944]},"id":null},{"type":"Feature","properties":{"parent_code":"7304","parent_name":"Jeneponto","code":"","name":"Turatea","kind":"District"},"geometry":{"type":"Point","coordinates":[119.75445852250004,-5.602179777999936]},"id":null},{"type":"Feature","properties":{"parent_code":"7304","parent_name":"Jeneponto","code":"","name":"Bangkala","kind":"District"},"geometry":{"type":"Point","coordinates":[119.60295777700003,-5.5638170409999645]},"id":null},{"type":"Feature","properties":{"parent_code":"7304","parent_name":"Jeneponto","code":"","name":"Tamalatea","kind":"District"},"geometry":{"type":"Point","coordinates":[119.66454589350002,-5.636917402499961]},"id":null},{"type":"Feature","properties":{"parent_code":"7304","parent_name":"Jeneponto","code":"","name":"Kelara","kind":"District"},"geometry":{"type":"Point","coordinates":[119.82425746550007,-5.553649636499955]},"id":null},{"type":"Feature","properties":{"parent_code":"7304","parent_name":"Jeneponto","code":"","name":"Bangkala Barat","kind":"District"},"geometry":{"type":"Point","coordinates":[119.5700254570001,-5.508477339499933]},"id":null},{"type":"Feature","properties":{"parent_code":"7304","parent_name":"Jeneponto","code":"","name":"Binamu","kind":"District"},"geometry":{"type":"Point","coordinates":[119.72478963800006,-5.667437764499967]},"id":null},{"type":"Feature","properties":{"parent_code":"7304","parent_name":"Jeneponto","code":"","name":"Batang","kind":"District"},"geometry":{"type":"Point","coordinates":[119.81550538250008,-5.62443596199995]},"id":null},{"type":"Feature","properties":{"parent_code":"7304","parent_name":"Jeneponto","code":"","name":"Rumbia","kind":"District"},"geometry":{"type":"Point","coordinates":[119.88758082800007,-5.455722001999959]},"id":null},{"type":"Feature","properties":{"parent_code":"7304","parent_name":"Jeneponto","code":"","name":"Tarowang","kind":"District"},"geometry":{"type":"Point","coordinates":[119.86694236900007,-5.587855411499959]},"id":null}]}