{"type":"FeatureCollection","features":[{"type":"Feature","properties":{"parent_code":"7317","parent_name":"Luwu","code":"","name":"Lamasi","kind":"District"},"geometry":{"type":"Point","coordinates":[120.18202915950008,-2.801124470499957]},"id":null},{"type":"Feature","properties":{"parent_code":"7317","parent_name":"Luwu","code":"","name":"Suli","kind":"District"},"geometry":{"type":"Point","coordinates":[120.34875109800004,-3.453211922999941]},"id":null},{"type":"Feature","properties":{"parent_code":"7317","parent_name":"Luwu","code":"","name":"Bajo","kind":"District"},"geometry":{"type":"Point","coordinates":[120.30498672850007,-3.3592634374999766]},"id":null},{"type":"Feature","properties":{"parent_code":"7317","parent_name":"Luwu","code":"","name":"Basse Sangtempe","kind":"District"},"geometry":{"type":"Point","coordinates":[120.08002924200008,-3.2259515044999603]},"id":null},{"type":"Feature","properties":{"parent_code":"7317","parent_name":"Luwu","code":"","name":"Larompong","kind":"District"},"geometry":{"type":"Point","coordinates":[120.29125645500011,-3.554673638999958]},"id":null},{"type":"Feature","properties":{"parent_code":"7317","parent_name":"Luwu","code":"","name":"Belopa","kind":"District"},"geometry":{"type":"Point","coordinates":[120.3636879230001,-3.390228600499938]},"id":null},{"type":"Feature","properties":{"parent_code":"7317","parent_name":"Luwu","code":"","name":"Bua","kind":"District"},"geometry":{"type":"Point","coordinates":[120.19746237850006,-3.1139332139999283]},"id":null},{"type":"Feature","properties":{"parent_code":"7317","parent_name":"Luwu","code":"","name":"Bua Ponrang","kind":"District"},"geometry":{"type":"Point","coordinates":[120.2301457205001,-3.272192649999937]},"id":null},{"type":"Feature","properties":{"parent_code":"7317","parent_name":"Luwu","code":"","name":"Walenrang","kind":"District"},"geometry":{"type":"Point","coordinates":[120.11365770350005,-2.889194849999967]},"id":null},{"type":"Feature","properties":{"parent_code":"7317","parent_name":"Luwu","code":"","name":"Larompong Selatan","kind":"District"},"geometry":{"type":"Point","coordinates":[120.35171747850006,-3.6131152539999505]},"id":null},{"type":"Feature","properties":{"parent_code":"7317","parent_name":"Luwu","code":"","name":"Ponrang","kind":"District"},"geometry":{"type":"Point","coordinates":[120.25494957850009,-3.210596401999965]},"id":null},{"type":"Feature","properties":{"parent_code":"7317","parent_name":"Luwu","code":"","name":"Belopa Utara","kind":"District"},"geometry":{"type":"Point","coordinates":[120.37085932200006,-3.356478364499964]},"id":null},{"type":"Feature","properties":{"parent_code":"7317","parent_name":"Luwu","code":"","name":"Walenrang Barat","kind":"District"},"geometry":{"type":"Point","coordinates":[119.99393950450002,-2.8111455119999675]},"id":null},{"type":"Feature","properties":{"parent_code":"7317","parent_name":"Luwu","code":"","name":"Latimojong","kind":"District"},"geometry":{"type":"Point","coordinates":[120.11906332300009,-3.391180738499941]},"id":null},{"type":"Feature","properties":{"parent_code":"7317","parent_name":"Luwu","code":"","name":"Kamanre","kind":"District"},"geometry":{"type":"Point","coordinates":[120.34105794800007,-3.3151956914999516]},"id":null},{"type":"Feature","properties":{"parent_code":"7317","parent_name":"Luwu","code":"","name":"Lamasi Timur","kind":"District"},"geometry":{"type":"Point","coordinates":[120.23501386700002,-2.878514713999948]},"id":null},{"type":"Feature","properties":{"parent_code":"7317","parent_name":"Luwu","code":"","name":"Suli Barat","kind":"District"},"geometry":{"type":"Point","coordinates":[120.25788293850007,-3.4561394564999546]},"id":null},{"type":"Feature","properties":{"parent_code":"7317","parent_name":"Luwu","code":"","name":"Walenrang Utara","kind":"District"},"geometry":{"type":"Point","coordinates":[120.09268915100006,-2.7582411829999387]},"id":null},{"type":"Feature","properties":{"parent_code":"7317","parent_name":"Luwu","code":"","name":"Walenrang Timur","kind":"District"},"geometry":{"type":"Point","coordinates":[120.20652310900005,-2.895516133999962]},"id":null},{"type":"Feature","properties":{"parent_code":"7317","parent_name":"Luwu","code":"","name":"Ponrang Selatan","kind":"District"},"geometry":{"type":"Point","coordinates":[120.35517127150007,-3.2477500554999494]},"id":null},{"type":"Feature","properties":{"parent_code":"7317","parent_name":"Luwu","code":"","name":"Basse Sangtempe Utara","kind":"District"},"geometry":{"type":"Point","coordinates":[120.07851122000005,-3.107064249999951]},"id":null},{"type":"Feature","properties":{"parent_code":"7317","parent_name":"Luwu","code":"","name":"Bajo Barat","kind":"District"},"geometry":{"type":"Point","coordinates":[120.2350218525001,-3.3555246374999395]},"id":null}]}