{"type":"FeatureCollection","features":[{"type":"Feature","properties":{"parent_code":"7373","parent_name":"Kota Palopo","code":"","name":"Bara","kind":"District"},"geometry":{"type":"Point","coordinates":[120.18344317050008,-2.953521943499965]},"id":null},{"type":"Feature","properties":{"parent_code":"7373","parent_name":"Kota Palopo","code":"","name":"Sendana","kind":"District"},"geometry":{"type":"Point","coordinates":[120.16215709950006,-3.0457901469999342]},"id":null},{"type":"Feature","properties":{"parent_code":"7373","parent_name":"Kota Palopo","code":"","name":"Mungkajang","kind":"District"},"geometry":{"type":"Point","coordinates":[120.13561696600004,-3.0210344729999576]},"id":null},{"type":"Feature","properties":{"parent_code":"7373","parent_name":"Kota Palopo","code":"","name":"Wara","kind":"District"},"geometry":{"type":"Point","coordinates":[120.19330249650011,-3.008627998999941]},"id":null},{"type":"Feature","properties":{"parent_code":"7373","parent_name":"Kota Palopo","code":"","name":"Wara Utara","kind":"District"},"geometry":{"type":"Point","coordinates":[120.18408082850004,-2.987254013999973]},"id":null},{"type":"Feature","properties":{"parent_code":"7373","parent_name":"Kota Palopo","code":"","name":"Wara Timur","kind":"District"},"geometry":{"type":"Point","coordinates":[120.20907981450006,-3.0016023254999595]},"id":null},{"type":"Feature","properties":{"parent_code":"7373","parent_name":"Kota Palopo","code":"","name":"Wara Barat","kind":"District"},"geometry":{"type":"Point","coordinates":[120.11989455950004,-2.9575160259999507]},"id":null},{"type":"Feature","properties":{"parent_code":"7373","parent_name":"Kota Palopo","code":"","name":"Wara Selatan","kind":"District"},"geometry":{"type":"Point","coordinates":[120.21352333350006,-3.034897365499944]},"id":null},{"type":"Feature","properties":{"parent_code":"7373","parent_name":"Kota Palopo","code":"","name":"Telluwanua","kind":"District"},"geometry":{"type":"Point","coordinates":[120.17038622650006,-2.920664832499938]},"id":null}]}