{"type":"FeatureCollection","features":[{"type":"Feature","properties":{"parent_code":"3203","parent_name":"Cianjur","code":"","name":"Leles","kind":"District"},"geometry":{"type":"Point","coordinates":[107.01793955000005,-7.342677253499971]},"id":null},{"type":"Feature","properties":{"parent_code":"3203","parent_name":"Cianjur","code":"","name":"Haurwangi","kind":"District"},"geometry":{"type":"Point","coordinates":[107.31617114400007,-6.844518347499928]},"id":null},{"type":"Feature","properties":{"parent_code":"3203","parent_name":"Cianjur","code":"","name":"Pasirkuda","kind":"District"},"geometry":{"type":"Point","coordinates":[107.22577738550004,-7.211259346499979]},"id":null},{"type":"Feature","properties":{"parent_code":"3203","parent_name":"Cianjur","code":"","name":"Ciranjang","kind":"District"},"geometry":{"type":"Point","coordinates":[107.26778729050005,-6.807322006499959]},"id":null},{"type":"Feature","properties":{"parent_code":"3203","parent_name":"Cianjur","code":"","name":"Bojongpicung","kind":"District"},"geometry":{"type":"Point","coordinates":[107.25930456300009,-6.881162142999955]},"id":null},{"type":"Feature","properties":{"parent_code":"3203","parent_name":"Cianjur","code":"","name":"Cibeber","kind":"District"},"geometry":{"type":"Point","coordinates":[107.13956304800007,-6.940527897499948]},"id":null},{"type":"Feature","properties":{"parent_code":"3203","parent_name":"Cianjur","code":"","name":"Cilaku","kind":"District"},"geometry":{"type":"Point","coordinates":[107.14506403850007,-6.869495757499976]},"id":null},{"type":"Feature","properties":{"parent_code":"3203","parent_name":"Cianjur","code":"","name":"Sukaluyu","kind":"District"},"geometry":{"type":"Point","coordinates":[107.22059251900006,-6.82483876349994]},"id":null},{"type":"Feature","properties":{"parent_code":"3203","parent_name":"Cianjur","code":"","name":"Karangtengah","kind":"District"},"geometry":{"type":"Point","coordinates":[107.20158596550004,-6.803903613499955]},"id":null},{"type":"Feature","properties":{"parent_code":"3203","parent_name":"Cianjur","code":"","name":"Mande","kind":"District"},"geometry":{"type":"Point","coordinates":[107.19282905200006,-6.756626921999969]},"id":null},{"type":"Feature","properties":{"parent_code":"3203","parent_name":"Cianjur","code":"","name":"Cianjur","kind":"District"},"geometry":{"type":"Point","coordinates":[107.12394245100006,-6.813881201999948]},"id":null},{"type":"Feature","properties":{"parent_code":"3203","parent_name":"Cianjur","code":"","name":"Warungkondang","kind":"District"},"geometry":{"type":"Point","coordinates":[107.05621618500004,-6.858137216499955]},"id":null},{"type":"Feature","properties":{"parent_code":"3203","parent_name":"Cianjur","code":"","name":"Takokak","kind":"District"},"geometry":{"type":"Point","coordinates":[106.99008884500006,-7.115211906499951]},"id":null},{"type":"Feature","properties":{"parent_code":"3203","parent_name":"Cianjur","code":"","name":"Kadupandak","kind":"District"},"geometry":{"type":"Point","coordinates":[107.01981638300006,-7.210968292499956]},"id":null},{"type":"Feature","properties":{"parent_code":"3203","parent_name":"Cianjur","code":"","name":"Sukanagara","kind":"District"},"geometry":{"type":"Point","coordinates":[107.09392618700005,-7.09854640599994]},"id":null},{"type":"Feature","properties":{"parent_code":"3203","parent_name":"Cianjur","code":"","name":"Campaka","kind":"District"},"geometry":{"type":"Point","coordinates":[107.11397053500002,-7.0013188234999575]},"id":null},{"type":"Feature","properties":{"parent_code":"3203","parent_name":"Cianjur","code":"","name":"Pagelaran","kind":"District"},"geometry":{"type":"Point","coordinates":[107.18512098600007,-7.16164862049996]},"id":null},{"type":"Feature","properties":{"parent_code":"3203","parent_name":"Cianjur","code":"","name":"Tanggeung","kind":"District"},"geometry":{"type":"Point","coordinates":[107.12775732850008,-7.255498261999975]},"id":null},{"type":"Feature","properties":{"parent_code":"3203","parent_name":"Cianjur","code":"","name":"Cikalongkulon","kind":"District"},"geometry":{"type":"Point","coordinates":[107.22091994550007,-6.672179589999928]},"id":null},{"type":"Feature","properties":{"parent_code":"3203","parent_name":"Cianjur","code":"","name":"Sukaresmi","kind":"District"},"geometry":{"type":"Point","coordinates":[107.10127202850006,-6.715435451499957]},"id":null},{"type":"Feature","properties":{"parent_code":"3203","parent_name":"Cianjur","code":"","name":"Pacet","kind":"District"},"geometry":{"type":"Point","coordinates":[107.03095675350005,-6.736670521999969]},"id":null},{"type":"Feature","properties":{"parent_code":"3203","parent_name":"Cianjur","code":"","name":"Cugenang","kind":"District"},"geometry":{"type":"Point","coordinates":[107.05422916600006,-6.804409588499965]},"id":null},{"type":"Feature","properties":{"parent_code":"3203","parent_name":"Cianjur","code":"","name":"Gekbrong","kind":"District"},"geometry":{"type":"Point","coordinates":[107.04292235700007,-6.858773091499955]},"id":null},{"type":"Feature","properties":{"parent_code":"3203","parent_name":"Cianjur","code":"","name":"Cipanas","kind":"District"},"geometry":{"type":"Point","coordinates":[107.01177806800007,-6.72326631149997]},"id":null},{"type":"Feature","properties":{"parent_code":"3203","parent_name":"Cianjur","code":"","name":"Campakamulya","kind":"District"},"geometry":{"type":"Point","coordinates":[107.21556953350006,-7.073218643999951]},"id":null},{"type":"Feature","properties":{"parent_code":"3203","parent_name":"Cianjur","code":"","name":"Cikadu","kind":"District"},"geometry":{"type":"Point","coordinates":[107.26635335150007,-7.309340148499956]},"id":null},{"type":"Feature","properties":{"parent_code":"3203","parent_name":"Cianjur","code":"","name":"Cijati","kind":"District"},"geometry":{"type":"Point","coordinates":[107.02132784200006,-7.289302501999941]},"id":null},{"type":"Feature","properties":{"parent_code":"3203","parent_name":"Cianjur","code":"","name":"Cibinong","kind":"District"},"geometry":{"type":"Point","coordinates":[107.17701526650006,-7.320951538999935]},"id":null},{"type":"Feature","properties":{"parent_code":"3203","parent_name":"Cianjur","code":"","name":"Cidaun","kind":"District"},"geometry":{"type":"Point","coordinates":[107.34743323650005,-7.373881727499963]},"id":null},{"type":"Feature","properties":{"parent_code":"3203","parent_name":"Cianjur","code":"","name":"Naringgul","kind":"District"},"geometry":{"type":"Point","coordinates":[107.32066620550006,-7.350363574499966]},"id":null},{"type":"Feature","properties":{"parent_code":"3203","parent_name":"Cianjur","code":"","name":"Sindangbarang","kind":"District"},"geometry":{"type":"Point","coordinates":[107.10154491050005,-7.424235899499962]},"id":null},{"type":"Feature","properties":{"parent_code":"3203","parent_name":"Cianjur","code":"","name":"Agrabinta","kind":"District"},"geometry":{"type":"Point","coordinates":[106.88840508400008,-7.380878735499948]},"id":null}]}