{"type":"FeatureCollection","features":[{"type":"Feature","properties":{"parent_code":"3204","parent_name":"Bandung","code":"","name":"Rancabali","kind":"District"},"geometry":{"type":"Point","coordinates":[107.34503481300007,-7.164718709499965]},"id":null},{"type":"Feature","properties":{"parent_code":"3204","parent_name":"Bandung","code":"","name":"Kutawaringin","kind":"District"},"geometry":{"type":"Point","coordinates":[107.51106240400006,-6.998109563499952]},"id":null},{"type":"Feature","properties":{"parent_code":"3204","parent_name":"Bandung","code":"","name":"Cangkuang","kind":"District"},"geometry":{"type":"Point","coordinates":[107.54464349050005,-7.060658114999939]},"id":null},{"type":"Feature","properties":{"parent_code":"3204","parent_name":"Bandung","code":"","name":"Cimenyan","kind":"District"},"geometry":{"type":"Point","coordinates":[107.66824520750006,-6.862929393999963]},"id":null},{"type":"Feature","properties":{"parent_code":"3204","parent_name":"Bandung","code":"","name":"Cilengkrang","kind":"District"},"geometry":{"type":"Point","coordinates":[107.71841827300005,-6.860569566999942]},"id":null},{"type":"Feature","properties":{"parent_code":"3204","parent_name":"Bandung","code":"","name":"Cileunyi","kind":"District"},"geometry":{"type":"Point","coordinates":[107.73236752200006,-6.925302201499932]},"id":null},{"type":"Feature","properties":{"parent_code":"3204","parent_name":"Bandung","code":"","name":"Bojongsoang","kind":"District"},"geometry":{"type":"Point","coordinates":[107.66986429650007,-6.989550631999947]},"id":null},{"type":"Feature","properties":{"parent_code":"3204","parent_name":"Bandung","code":"","name":"Margahayu","kind":"District"},"geometry":{"type":"Point","coordinates":[107.57491752100006,-6.974467030999961]},"id":null},{"type":"Feature","properties":{"parent_code":"3204","parent_name":"Bandung","code":"","name":"Cimaung","kind":"District"},"geometry":{"type":"Point","coordinates":[107.57815500250007,-7.108904647499941]},"id":null},{"type":"Feature","properties":{"parent_code":"3204","parent_name":"Bandung","code":"","name":"Pangalengan","kind":"District"},"geometry":{"type":"Point","coordinates":[107.56611756100006,-7.204315906999966]},"id":null},{"type":"Feature","properties":{"parent_code":"3204","parent_name":"Bandung","code":"","name":"Arjasari","kind":"District"},"geometry":{"type":"Point","coordinates":[107.63978308300008,-7.076016876999944]},"id":null},{"type":"Feature","properties":{"parent_code":"3204","parent_name":"Bandung","code":"","name":"Margaasih","kind":"District"},"geometry":{"type":"Point","coordinates":[107.54466244250008,-6.949723389999946]},"id":null},{"type":"Feature","properties":{"parent_code":"3204","parent_name":"Bandung","code":"","name":"Banjaran","kind":"District"},"geometry":{"type":"Point","coordinates":[107.59381026700002,-7.0745587984999645]},"id":null},{"type":"Feature","properties":{"parent_code":"3204","parent_name":"Bandung","code":"","name":"Pameungpeuk","kind":"District"},"geometry":{"type":"Point","coordinates":[107.58889372950006,-7.016379358499961]},"id":null},{"type":"Feature","properties":{"parent_code":"3204","parent_name":"Bandung","code":"","name":"Katapang","kind":"District"},"geometry":{"type":"Point","coordinates":[107.56382273150007,-7.006258565499962]},"id":null},{"type":"Feature","properties":{"parent_code":"3204","parent_name":"Bandung","code":"","name":"Dayeuhkolot","kind":"District"},"geometry":{"type":"Point","coordinates":[107.61214353100004,-6.975994777999975]},"id":null},{"type":"Feature","properties":{"parent_code":"3204","parent_name":"Bandung","code":"","name":"Rancaekek","kind":"District"},"geometry":{"type":"Point","coordinates":[107.76512610600005,-6.979709755999949]},"id":null},{"type":"Feature","properties":{"parent_code":"3204","parent_name":"Bandung","code":"","name":"Ciparay","kind":"District"},"geometry":{"type":"Point","coordinates":[107.68860680950004,-7.056807310999975]},"id":null},{"type":"Feature","properties":{"parent_code":"3204","parent_name":"Bandung","code":"","name":"Nagreg","kind":"District"},"geometry":{"type":"Point","coordinates":[107.89550477950007,-7.0207561254999575]},"id":null},{"type":"Feature","properties":{"parent_code":"3204","parent_name":"Bandung","code":"","name":"Cikancung","kind":"District"},"geometry":{"type":"Point","coordinates":[107.82749827500004,-7.033120956499943]},"id":null},{"type":"Feature","properties":{"parent_code":"3204","parent_name":"Bandung","code":"","name":"Cicalengka","kind":"District"},"geometry":{"type":"Point","coordinates":[107.86161766850006,-6.99779235349996]},"id":null},{"type":"Feature","properties":{"parent_code":"3204","parent_name":"Bandung","code":"","name":"Ciwidey","kind":"District"},"geometry":{"type":"Point","coordinates":[107.43302178100004,-7.086600059999969]},"id":null},{"type":"Feature","properties":{"parent_code":"3204","parent_name":"Bandung","code":"","name":"Soreang","kind":"District"},"geometry":{"type":"Point","coordinates":[107.51977842350003,-7.042576584999949]},"id":null},{"type":"Feature","properties":{"parent_code":"3204","parent_name":"Bandung","code":"","name":"Pasirjambu","kind":"District"},"geometry":{"type":"Point","coordinates":[107.45162107000007,-7.153187003999975]},"id":null},{"type":"Feature","properties":{"parent_code":"3204","parent_name":"Bandung","code":"","name":"Kertasari","kind":"District"},"geometry":{"type":"Point","coordinates":[107.68041452500006,-7.221091006999956]},"id":null},{"type":"Feature","properties":{"parent_code":"3204","parent_name":"Bandung","code":"","name":"Baleendah","kind":"District"},"geometry":{"type":"Point","coordinates":[107.63341611900006,-7.012000406999977]},"id":null},{"type":"Feature","properties":{"parent_code":"3204","parent_name":"Bandung","code":"","name":"Pacet","kind":"District"},"geometry":{"type":"Point","coordinates":[107.69274126500002,-7.132174113999952]},"id":null},{"type":"Feature","properties":{"parent_code":"3204","parent_name":"Bandung","code":"","name":"Paseh","kind":"District"},"geometry":{"type":"Point","coordinates":[107.80001312250005,-7.071953596499952]},"id":null},{"type":"Feature","properties":{"parent_code":"3204","parent_name":"Bandung","code":"","name":"Ibun","kind":"District"},"geometry":{"type":"Point","coordinates":[107.77320263900003,-7.1089058164999415]},"id":null},{"type":"Feature","properties":{"parent_code":"3204","parent_name":"Bandung","code":"","name":"Majalaya","kind":"District"},"geometry":{"type":"Point","coordinates":[107.74888829700002,-7.055148170999956]},"id":null},{"type":"Feature","properties":{"parent_code":"3204","parent_name":"Bandung","code":"","name":"Solokanjeruk","kind":"District"},"geometry":{"type":"Point","coordinates":[107.74177010450006,-7.0118547009999475]},"id":null}]}