{"type":"FeatureCollection","features":[{"type":"Feature","properties":{"parent_code":"3210","parent_name":"Majalengka","code":"","name":"Lemahsugih","kind":"District"},"geometry":{"type":"Point","coordinates":[108.19381917600006,-7.004346027999958]},"id":null},{"type":"Feature","properties":{"parent_code":"3210","parent_name":"Majalengka","code":"","name":"Bantarujeg","kind":"District"},"geometry":{"type":"Point","coordinates":[108.24738183850005,-6.973665500999971]},"id":null},{"type":"Feature","properties":{"parent_code":"3210","parent_name":"Majalengka","code":"","name":"Argapura","kind":"District"},"geometry":{"type":"Point","coordinates":[108.35413098500004,-6.893412137499951]},"id":null},{"type":"Feature","properties":{"parent_code":"3210","parent_name":"Majalengka","code":"","name":"Maja","kind":"District"},"geometry":{"type":"Point","coordinates":[108.26755399150008,-6.900938]},"id":null},{"type":"Feature","properties":{"parent_code":"3210","parent_name":"Majalengka","code":"","name":"Cikijing","kind":"District"},"geometry":{"type":"Point","coordinates":[108.36189745150003,-7.002170718499976]},"id":null},{"type":"Feature","properties":{"parent_code":"3210","parent_name":"Majalengka","code":"","name":"Talaga","kind":"District"},"geometry":{"type":"Point","coordinates":[108.33928891400001,-6.960945532499949]},"id":null},{"type":"Feature","properties":{"parent_code":"3210","parent_name":"Majalengka","code":"","name":"Rajagaluh","kind":"District"},"geometry":{"type":"Point","coordinates":[108.36409698550005,-6.83397609199999]},"id":null},{"type":"Feature","properties":{"parent_code":"3210","parent_name":"Majalengka","code":"","name":"Majalengka","kind":"District"},"geometry":{"type":"Point","coordinates":[108.22978056300002,-6.8507515]},"id":null},{"type":"Feature","properties":{"parent_code":"3210","parent_name":"Majalengka","code":"","name":"Sukahaji","kind":"District"},"geometry":{"type":"Point","coordinates":[108.29607949999999,-6.8206395]},"id":null},{"type":"Feature","properties":{"parent_code":"3210","parent_name":"Majalengka","code":"","name":"Dawuan","kind":"District"},"geometry":{"type":"Point","coordinates":[108.20473855650003,-6.725162000499974]},"id":null},{"type":"Feature","properties":{"parent_code":"3210","parent_name":"Majalengka","code":"","name":"Kadipaten","kind":"District"},"geometry":{"type":"Point","coordinates":[108.17573795550003,-6.755944730999987]},"id":null},{"type":"Feature","properties":{"parent_code":"3210","parent_name":"Majalengka","code":"","name":"Leuwimunding","kind":"District"},"geometry":{"type":"Point","coordinates":[108.34178352700003,-6.743427303499981]},"id":null},{"type":"Feature","properties":{"parent_code":"3210","parent_name":"Majalengka","code":"","name":"Jatiwangi","kind":"District"},"geometry":{"type":"Point","coordinates":[108.25794021900003,-6.748942500499985]},"id":null},{"type":"Feature","properties":{"parent_code":"3210","parent_name":"Majalengka","code":"","name":"Ligung","kind":"District"},"geometry":{"type":"Point","coordinates":[108.28484964050008,-6.66261873199997]},"id":null},{"type":"Feature","properties":{"parent_code":"3210","parent_name":"Majalengka","code":"","name":"Sumberjaya","kind":"District"},"geometry":{"type":"Point","coordinates":[108.33654018800007,-6.689637278999972]},"id":null},{"type":"Feature","properties":{"parent_code":"3210","parent_name":"Majalengka","code":"","name":"Kertajati","kind":"District"},"geometry":{"type":"Point","coordinates":[108.12911044600003,-6.637835078999972]},"id":null},{"type":"Feature","properties":{"parent_code":"3210","parent_name":"Majalengka","code":"","name":"Jatitujuh","kind":"District"},"geometry":{"type":"Point","coordinates":[108.23469700000001,-6.630423557499981]},"id":null},{"type":"Feature","properties":{"parent_code":"3210","parent_name":"Majalengka","code":"","name":"Panyingkiran","kind":"District"},"geometry":{"type":"Point","coordinates":[108.18100442500003,-6.815815283999939]},"id":null},{"type":"Feature","properties":{"parent_code":"3210","parent_name":"Majalengka","code":"","name":"Palasah","kind":"District"},"geometry":{"type":"Point","coordinates":[108.29880293150006,-6.738140247999971]},"id":null},{"type":"Feature","properties":{"parent_code":"3210","parent_name":"Majalengka","code":"","name":"Cingambul","kind":"District"},"geometry":{"type":"Point","coordinates":[108.3403675,-7.041232685499949]},"id":null},{"type":"Feature","properties":{"parent_code":"3210","parent_name":"Majalengka","code":"","name":"Kasokandel","kind":"District"},"geometry":{"type":"Point","coordinates":[108.229016,-6.7783555]},"id":null},{"type":"Feature","properties":{"parent_code":"3210","parent_name":"Majalengka","code":"","name":"Sindangwangi","kind":"District"},"geometry":{"type":"Point","coordinates":[108.37506689800004,-6.823791894499948]},"id":null},{"type":"Feature","properties":{"parent_code":"3210","parent_name":"Majalengka","code":"","name":"Banjaran","kind":"District"},"geometry":{"type":"Point","coordinates":[108.34047123950002,-6.954302807999937]},"id":null},{"type":"Feature","properties":{"parent_code":"3210","parent_name":"Majalengka","code":"","name":"Sindang","kind":"District"},"geometry":{"type":"Point","coordinates":[108.32541299950003,-6.9104030000000005]},"id":null},{"type":"Feature","properties":{"parent_code":"3210","parent_name":"Majalengka","code":"","name":"Malausma","kind":"District"},"geometry":{"type":"Point","coordinates":[108.24325964150006,-7.034928897499974]},"id":null},{"type":"Feature","properties":{"parent_code":"3210","parent_name":"Majalengka","code":"","name":"Cigasong","kind":"District"},"geometry":{"type":"Point","coordinates":[108.25213,-6.8248950004999624]},"id":null}]}