{"type":"FeatureCollection","features":[{"type":"Feature","properties":{"parent_code":"3214","parent_name":"Purwakarta","code":"","name":"Sukatani","kind":"District"},"geometry":{"type":"Point","coordinates":[107.37812153650006,-6.593222178499965]},"id":null},{"type":"Feature","properties":{"parent_code":"3214","parent_name":"Purwakarta","code":"","name":"Darangdan","kind":"District"},"geometry":{"type":"Point","coordinates":[107.45403720700003,-6.70201]},"id":null},{"type":"Feature","properties":{"parent_code":"3214","parent_name":"Purwakarta","code":"","name":"Jatiluhur","kind":"District"},"geometry":{"type":"Point","coordinates":[107.41616882200003,-6.565596105999975]},"id":null},{"type":"Feature","properties":{"parent_code":"3214","parent_name":"Purwakarta","code":"","name":"Plered","kind":"District"},"geometry":{"type":"Point","coordinates":[107.383037,-6.6495479989999655]},"id":null},{"type":"Feature","properties":{"parent_code":"3214","parent_name":"Purwakarta","code":"","name":"Wanayasa","kind":"District"},"geometry":{"type":"Point","coordinates":[107.55135499500005,-6.65851450599996]},"id":null},{"type":"Feature","properties":{"parent_code":"3214","parent_name":"Purwakarta","code":"","name":"Maniis","kind":"District"},"geometry":{"type":"Point","coordinates":[107.31193972750006,-6.683170975999957]},"id":null},{"type":"Feature","properties":{"parent_code":"3214","parent_name":"Purwakarta","code":"","name":"Tegalwaru","kind":"District"},"geometry":{"type":"Point","coordinates":[107.33177888900008,-6.628778907499964]},"id":null},{"type":"Feature","properties":{"parent_code":"3214","parent_name":"Purwakarta","code":"","name":"Purwakarta","kind":"District"},"geometry":{"type":"Point","coordinates":[107.45634100050003,-6.540528847499974]},"id":null},{"type":"Feature","properties":{"parent_code":"3214","parent_name":"Purwakarta","code":"","name":"Campaka","kind":"District"},"geometry":{"type":"Point","coordinates":[107.51065908600006,-6.48671249649998]},"id":null},{"type":"Feature","properties":{"parent_code":"3214","parent_name":"Purwakarta","code":"","name":"Pondoksalam","kind":"District"},"geometry":{"type":"Point","coordinates":[107.49024783550001,-6.617741379499989]},"id":null},{"type":"Feature","properties":{"parent_code":"3214","parent_name":"Purwakarta","code":"","name":"Kiarapedes","kind":"District"},"geometry":{"type":"Point","coordinates":[107.56495900050004,-6.645270654499939]},"id":null},{"type":"Feature","properties":{"parent_code":"3214","parent_name":"Purwakarta","code":"","name":"Cibatu","kind":"District"},"geometry":{"type":"Point","coordinates":[107.53543398650001,-6.5271802324999655]},"id":null},{"type":"Feature","properties":{"parent_code":"3214","parent_name":"Purwakarta","code":"","name":"Sukasari","kind":"District"},"geometry":{"type":"Point","coordinates":[107.30554698350005,-6.563378513499982]},"id":null},{"type":"Feature","properties":{"parent_code":"3214","parent_name":"Purwakarta","code":"","name":"Babakancikao","kind":"District"},"geometry":{"type":"Point","coordinates":[107.41767236550007,-6.496156862499959]},"id":null},{"type":"Feature","properties":{"parent_code":"3214","parent_name":"Purwakarta","code":"","name":"Bungursari","kind":"District"},"geometry":{"type":"Point","coordinates":[107.47858139150006,-6.46211833199996]},"id":null},{"type":"Feature","properties":{"parent_code":"3214","parent_name":"Purwakarta","code":"","name":"Pasawahan","kind":"District"},"geometry":{"type":"Point","coordinates":[107.48121749500007,-6.572780789999939]},"id":null},{"type":"Feature","properties":{"parent_code":"3214","parent_name":"Purwakarta","code":"","name":"Bojong","kind":"District"},"geometry":{"type":"Point","coordinates":[107.51931140200003,-6.701839188499946]},"id":null}]}