{"type":"FeatureCollection","features":[{"type":"Feature","properties":{"parent_code":"3218","parent_name":"Pangandaran","code":"","name":"Pangandaran","kind":"District"},"geometry":{"type":"Point","coordinates":[108.65579159250004,-7.656796752499972]},"id":null},{"type":"Feature","properties":{"parent_code":"3218","parent_name":"Pangandaran","code":"","name":"Padaherang","kind":"District"},"geometry":{"type":"Point","coordinates":[108.68819302600002,-7.549149148499964]},"id":null},{"type":"Feature","properties":{"parent_code":"3218","parent_name":"Pangandaran","code":"","name":"Kalipucang","kind":"District"},"geometry":{"type":"Point","coordinates":[108.70641903600006,-7.630964463499964]},"id":null},{"type":"Feature","properties":{"parent_code":"3218","parent_name":"Pangandaran","code":"","name":"Parigi","kind":"District"},"geometry":{"type":"Point","coordinates":[108.50937883850003,-7.6465232819999756]},"id":null},{"type":"Feature","properties":{"parent_code":"3218","parent_name":"Pangandaran","code":"","name":"Cijulang","kind":"District"},"geometry":{"type":"Point","coordinates":[108.43606830500005,-7.7212650004999865]},"id":null},{"type":"Feature","properties":{"parent_code":"3218","parent_name":"Pangandaran","code":"","name":"Langkaplancar","kind":"District"},"geometry":{"type":"Point","coordinates":[108.43391107250005,-7.558848275999978]},"id":null},{"type":"Feature","properties":{"parent_code":"3218","parent_name":"Pangandaran","code":"","name":"Mangunjaya","kind":"District"},"geometry":{"type":"Point","coordinates":[108.69003494950005,-7.488589624499983]},"id":null},{"type":"Feature","properties":{"parent_code":"3218","parent_name":"Pangandaran","code":"","name":"Cimerak","kind":"District"},"geometry":{"type":"Point","coordinates":[108.40863693000006,-7.7443226099999265]},"id":null},{"type":"Feature","properties":{"parent_code":"3218","parent_name":"Pangandaran","code":"","name":"Cigugur","kind":"District"},"geometry":{"type":"Point","coordinates":[108.40182118200002,-7.617880500499969]},"id":null},{"type":"Feature","properties":{"parent_code":"3218","parent_name":"Pangandaran","code":"","name":"Sidamulih","kind":"District"},"geometry":{"type":"Point","coordinates":[108.58833061750002,-7.618133087999951]},"id":null}]}