{"type":"FeatureCollection","features":[{"type":"Feature","properties":{"parent_code":"3271","parent_name":"Kota Bogor","code":"","name":"Bogor Selatan","kind":"District"},"geometry":{"type":"Point","coordinates":[106.80985655350005,-6.643535248999939]},"id":null},{"type":"Feature","properties":{"parent_code":"3271","parent_name":"Kota Bogor","code":"","name":"Bogor Barat","kind":"District"},"geometry":{"type":"Point","coordinates":[106.76563818800005,-6.576525150999965]},"id":null},{"type":"Feature","properties":{"parent_code":"3271","parent_name":"Kota Bogor","code":"","name":"Bogor Utara","kind":"District"},"geometry":{"type":"Point","coordinates":[106.81793015300008,-6.57156385199997]},"id":null},{"type":"Feature","properties":{"parent_code":"3271","parent_name":"Kota Bogor","code":"","name":"Bogor Timur","kind":"District"},"geometry":{"type":"Point","coordinates":[106.82542390800006,-6.625787766499968]},"id":null},{"type":"Feature","properties":{"parent_code":"3271","parent_name":"Kota Bogor","code":"","name":"Bogor Tengah","kind":"District"},"geometry":{"type":"Point","coordinates":[106.79779163150008,-6.592196381999969]},"id":null},{"type":"Feature","properties":{"parent_code":"3271","parent_name":"Kota Bogor","code":"","name":"Tanah Sareal","kind":"District"},"geometry":{"type":"Point","coordinates":[106.78704867350007,-6.5489700069999675]},"id":null}]}