{"type":"FeatureCollection","features":[{"type":"Feature","properties":{"parent_code":"8204","parent_name":"Halmahera Selatan","code":"","name":"Bacan Barat","kind":"District"},"geometry":{"type":"Point","coordinates":[127.3144639360001,-0.43434806749994]},"id":null},{"type":"Feature","properties":{"parent_code":"8204","parent_name":"Halmahera Selatan","code":"","name":"Gane Timur","kind":"District"},"geometry":{"type":"Point","coordinates":[127.87931358600008,-0.06091087149994201]},"id":null},{"type":"Feature","properties":{"parent_code":"8204","parent_name":"Halmahera Selatan","code":"","name":"Gane Barat","kind":"District"},"geometry":{"type":"Point","coordinates":[127.91341807750007,-0.462789919999949]},"id":null},{"type":"Feature","properties":{"parent_code":"8204","parent_name":"Halmahera Selatan","code":"","name":"Pulau Makian","kind":"District"},"geometry":{"type":"Point","coordinates":[127.40977372200007,0.3255564005000625]},"id":null},{"type":"Feature","properties":{"parent_code":"8204","parent_name":"Halmahera Selatan","code":"","name":"Kayoa","kind":"District"},"geometry":{"type":"Point","coordinates":[127.27597775350006,0.011533840500050005]},"id":null},{"type":"Feature","properties":{"parent_code":"8204","parent_name":"Halmahera Selatan","code":"","name":"Bacan Timur","kind":"District"},"geometry":{"type":"Point","coordinates":[127.63463362250008,-0.508180541999963]},"id":null},{"type":"Feature","properties":{"parent_code":"8204","parent_name":"Halmahera Selatan","code":"","name":"Bacan","kind":"District"},"geometry":{"type":"Point","coordinates":[127.42431681350007,-0.5656443624999385]},"id":null},{"type":"Feature","properties":{"parent_code":"8204","parent_name":"Halmahera Selatan","code":"","name":"Obi Selatan","kind":"District"},"geometry":{"type":"Point","coordinates":[127.69642877100006,-1.6992533744999605]},"id":null},{"type":"Feature","properties":{"parent_code":"8204","parent_name":"Halmahera Selatan","code":"","name":"Obi","kind":"District"},"geometry":{"type":"Point","coordinates":[127.60207292050006,-1.440118311999953]},"id":null},{"type":"Feature","properties":{"parent_code":"8204","parent_name":"Halmahera Selatan","code":"","name":"Makian Barat","kind":"District"},"geometry":{"type":"Point","coordinates":[127.37112672800004,0.322625372500056]},"id":null},{"type":"Feature","properties":{"parent_code":"8204","parent_name":"Halmahera Selatan","code":"","name":"Kayoa Barat","kind":"District"},"geometry":{"type":"Point","coordinates":[127.12027650200008,-0.21537709399996152]},"id":null},{"type":"Feature","properties":{"parent_code":"8204","parent_name":"Halmahera Selatan","code":"","name":"Bacan Barat Utara","kind":"District"},"geometry":{"type":"Point","coordinates":[127.46961082700005,-0.399213218999961]},"id":null},{"type":"Feature","properties":{"parent_code":"8204","parent_name":"Halmahera Selatan","code":"","name":"Kasiruta Barat","kind":"District"},"geometry":{"type":"Point","coordinates":[127.12282796750009,-0.3633178669999495]},"id":null},{"type":"Feature","properties":{"parent_code":"8204","parent_name":"Halmahera Selatan","code":"","name":"Kayoa Selatan","kind":"District"},"geometry":{"type":"Point","coordinates":[127.43731567950005,-0.0580522524999765]},"id":null},{"type":"Feature","properties":{"parent_code":"8204","parent_name":"Halmahera Selatan","code":"","name":"Kayoa Utara","kind":"District"},"geometry":{"type":"Point","coordinates":[127.44152829150005,0.0672026310000435]},"id":null},{"type":"Feature","properties":{"parent_code":"8204","parent_name":"Halmahera Selatan","code":"","name":"Kepulauan Botanglomang","kind":"District"},"geometry":{"type":"Point","coordinates":[127.36090536550006,-0.6301174154999389]},"id":null},{"type":"Feature","properties":{"parent_code":"8204","parent_name":"Halmahera Selatan","code":"","name":"Mandioli Selatan","kind":"District"},"geometry":{"type":"Point","coordinates":[127.24746406200006,-0.7354487654999384]},"id":null},{"type":"Feature","properties":{"parent_code":"8204","parent_name":"Halmahera Selatan","code":"","name":"Kasiruta Timur","kind":"District"},"geometry":{"type":"Point","coordinates":[127.28720432900002,-0.3792552309999735]},"id":null},{"type":"Feature","properties":{"parent_code":"8204","parent_name":"Halmahera Selatan","code":"","name":"Bacan Selatan","kind":"District"},"geometry":{"type":"Point","coordinates":[127.49333476850006,-0.733990573999961]},"id":null},{"type":"Feature","properties":{"parent_code":"8204","parent_name":"Halmahera Selatan","code":"","name":"Bacan Timur Selatan","kind":"District"},"geometry":{"type":"Point","coordinates":[127.7039629520001,-0.7695698729999375]},"id":null},{"type":"Feature","properties":{"parent_code":"8204","parent_name":"Halmahera Selatan","code":"","name":"Bacan Timur Tengah","kind":"District"},"geometry":{"type":"Point","coordinates":[127.73859839150003,-0.7110414924999585]},"id":null},{"type":"Feature","properties":{"parent_code":"8204","parent_name":"Halmahera Selatan","code":"","name":"Mandioli Utara","kind":"District"},"geometry":{"type":"Point","coordinates":[127.22510825850009,-0.6604566084999705]},"id":null},{"type":"Feature","properties":{"parent_code":"8204","parent_name":"Halmahera Selatan","code":"","name":"Kepulauan Joronga","kind":"District"},"geometry":{"type":"Point","coordinates":[128.31701960650008,-1.0123668424999435]},"id":null},{"type":"Feature","properties":{"parent_code":"8204","parent_name":"Halmahera Selatan","code":"","name":"Gane Timur Selatan","kind":"District"},"geometry":{"type":"Point","coordinates":[128.33201439850006,-0.7186737254999684]},"id":null},{"type":"Feature","properties":{"parent_code":"8204","parent_name":"Halmahera Selatan","code":"","name":"Gane Barat Selatan","kind":"District"},"geometry":{"type":"Point","coordinates":[128.17718333850001,-0.746266157999969]},"id":null},{"type":"Feature","properties":{"parent_code":"8204","parent_name":"Halmahera Selatan","code":"","name":"Gane Barat Utara","kind":"District"},"geometry":{"type":"Point","coordinates":[127.7674288015001,-0.20441265249996848]},"id":null},{"type":"Feature","properties":{"parent_code":"8204","parent_name":"Halmahera Selatan","code":"","name":"Obi Timur","kind":"District"},"geometry":{"type":"Point","coordinates":[128.38910797900007,-1.5517268724999553]},"id":null},{"type":"Feature","properties":{"parent_code":"8204","parent_name":"Halmahera Selatan","code":"","name":"Gane Timur Tengah","kind":"District"},"geometry":{"type":"Point","coordinates":[128.0151373445001,-0.409502928499961]},"id":null},{"type":"Feature","properties":{"parent_code":"8204","parent_name":"Halmahera Selatan","code":"","name":"Obi Barat","kind":"District"},"geometry":{"type":"Point","coordinates":[127.36181012050008,-1.317953394499966]},"id":null},{"type":"Feature","properties":{"parent_code":"8204","parent_name":"Halmahera Selatan","code":"","name":"Obi Utara","kind":"District"},"geometry":{"type":"Point","coordinates":[127.55200173550008,-1.2147364914999632]},"id":null}]}