{"type":"FeatureCollection","features":[{"type":"Feature","properties":{"parent_code":"7172","parent_name":"Kota Bitung","code":"","name":"Madidir","kind":"District"},"geometry":{"type":"Point","coordinates":[125.15995408050009,1.46124185900004]},"id":null},{"type":"Feature","properties":{"parent_code":"7172","parent_name":"Kota Bitung","code":"","name":"Ranowulu","kind":"District"},"geometry":{"type":"Point","coordinates":[125.12515051000008,1.520340902500038]},"id":null},{"type":"Feature","properties":{"parent_code":"7172","parent_name":"Kota Bitung","code":"","name":"Lembeh Selatan","kind":"District"},"geometry":{"type":"Point","coordinates":[125.21162121000009,1.413842927000047]},"id":null},{"type":"Feature","properties":{"parent_code":"7172","parent_name":"Kota Bitung","code":"","name":"Girian","kind":"District"},"geometry":{"type":"Point","coordinates":[125.13175397250006,1.4468019960000613]},"id":null},{"type":"Feature","properties":{"parent_code":"7172","parent_name":"Kota Bitung","code":"","name":"Maesa","kind":"District"},"geometry":{"type":"Point","coordinates":[125.18900385400008,1.462927527500028]},"id":null},{"type":"Feature","properties":{"parent_code":"7172","parent_name":"Kota Bitung","code":"","name":"Aertembaga","kind":"District"},"geometry":{"type":"Point","coordinates":[125.21080603650006,1.4903919150000604]},"id":null},{"type":"Feature","properties":{"parent_code":"7172","parent_name":"Kota Bitung","code":"","name":"Matuari","kind":"District"},"geometry":{"type":"Point","coordinates":[125.10705912450004,1.4324896505000595]},"id":null},{"type":"Feature","properties":{"parent_code":"7172","parent_name":"Kota Bitung","code":"","name":"Lembeh Utara","kind":"District"},"geometry":{"type":"Point","coordinates":[125.2609754550001,1.4864432260000346]},"id":null}]}