{"type":"FeatureCollection","features":[{"type":"Feature","properties":{"parent_code":"7173","parent_name":"Kota Tomohon","code":"","name":"Tomohon Utara","kind":"District"},"geometry":{"type":"Point","coordinates":[124.81735970950001,1.364547775500057]},"id":null},{"type":"Feature","properties":{"parent_code":"7173","parent_name":"Kota Tomohon","code":"","name":"Tomohon Barat","kind":"District"},"geometry":{"type":"Point","coordinates":[124.77759031750008,1.3274170455000274]},"id":null},{"type":"Feature","properties":{"parent_code":"7173","parent_name":"Kota Tomohon","code":"","name":"Tomohon Selatan","kind":"District"},"geometry":{"type":"Point","coordinates":[124.81461796400009,1.280154649500048]},"id":null},{"type":"Feature","properties":{"parent_code":"7173","parent_name":"Kota Tomohon","code":"","name":"Tomohon Tengah","kind":"District"},"geometry":{"type":"Point","coordinates":[124.84756088800009,1.3195452095000348]},"id":null},{"type":"Feature","properties":{"parent_code":"7173","parent_name":"Kota Tomohon","code":"","name":"Tomohon Timur","kind":"District"},"geometry":{"type":"Point","coordinates":[124.8738016965001,1.332387694500028]},"id":null}]}