{"type":"FeatureCollection","features":[{"type":"Feature","properties":{"parent_code":"6408","parent_name":"Kutai Timur","code":"","name":"Bengalon","kind":"District"},"geometry":{"type":"Point","coordinates":[117.47076609250007,0.9692793030000639]},"id":null},{"type":"Feature","properties":{"parent_code":"6408","parent_name":"Kutai Timur","code":"","name":"Muara Bengkal","kind":"District"},"geometry":{"type":"Point","coordinates":[116.81558713450005,0.3920868970000415]},"id":null},{"type":"Feature","properties":{"parent_code":"6408","parent_name":"Kutai Timur","code":"","name":"Sangatta Utara","kind":"District"},"geometry":{"type":"Point","coordinates":[117.51567987950006,0.5388812875000325]},"id":null},{"type":"Feature","properties":{"parent_code":"6408","parent_name":"Kutai Timur","code":"","name":"Muara Ancalong","kind":"District"},"geometry":{"type":"Point","coordinates":[116.46506633950008,0.449864735000023]},"id":null},{"type":"Feature","properties":{"parent_code":"6408","parent_name":"Kutai Timur","code":"","name":"Muara Wahau","kind":"District"},"geometry":{"type":"Point","coordinates":[116.59327056000006,1.406103916500058]},"id":null},{"type":"Feature","properties":{"parent_code":"6408","parent_name":"Kutai Timur","code":"","name":"Telen","kind":"District"},"geometry":{"type":"Point","coordinates":[116.81432198800007,1.0444465995000485]},"id":null},{"type":"Feature","properties":{"parent_code":"6408","parent_name":"Kutai Timur","code":"","name":"Kombeng","kind":"District"},"geometry":{"type":"Point","coordinates":[117.05651676050007,1.2973833515000308]},"id":null},{"type":"Feature","properties":{"parent_code":"6408","parent_name":"Kutai Timur","code":"","name":"Sangkulirang","kind":"District"},"geometry":{"type":"Point","coordinates":[118.0735503735001,1.0188184230000559]},"id":null},{"type":"Feature","properties":{"parent_code":"6408","parent_name":"Kutai Timur","code":"","name":"Busang","kind":"District"},"geometry":{"type":"Point","coordinates":[116.33908181850006,1.10402776600003]},"id":null},{"type":"Feature","properties":{"parent_code":"6408","parent_name":"Kutai Timur","code":"","name":"Kaliorang","kind":"District"},"geometry":{"type":"Point","coordinates":[117.85215060350004,0.8618180910000606]},"id":null},{"type":"Feature","properties":{"parent_code":"6408","parent_name":"Kutai Timur","code":"","name":"Sandaran","kind":"District"},"geometry":{"type":"Point","coordinates":[118.57833237900007,0.991411376500038]},"id":null},{"type":"Feature","properties":{"parent_code":"6408","parent_name":"Kutai Timur","code":"","name":"Rantau Pulung","kind":"District"},"geometry":{"type":"Point","coordinates":[117.20934158900008,0.655106138000036]},"id":null},{"type":"Feature","properties":{"parent_code":"6408","parent_name":"Kutai Timur","code":"","name":"Kaubun","kind":"District"},"geometry":{"type":"Point","coordinates":[117.7836574045001,1.074645575500057]},"id":null},{"type":"Feature","properties":{"parent_code":"6408","parent_name":"Kutai Timur","code":"","name":"Sangatta Selatan","kind":"District"},"geometry":{"type":"Point","coordinates":[117.27714450750005,0.454048307500045]},"id":null},{"type":"Feature","properties":{"parent_code":"6408","parent_name":"Kutai Timur","code":"","name":"Teluk Pandan","kind":"District"},"geometry":{"type":"Point","coordinates":[117.3533397755001,0.16748802200004298]},"id":null},{"type":"Feature","properties":{"parent_code":"6408","parent_name":"Kutai Timur","code":"","name":"Long Mesangat","kind":"District"},"geometry":{"type":"Point","coordinates":[116.70265240350005,0.6222378565000211]},"id":null},{"type":"Feature","properties":{"parent_code":"6408","parent_name":"Kutai Timur","code":"","name":"Karangan","kind":"District"},"geometry":{"type":"Point","coordinates":[117.58092807750006,1.341765635000058]},"id":null},{"type":"Feature","properties":{"parent_code":"6408","parent_name":"Kutai Timur","code":"","name":"Batu Ampar","kind":"District"},"geometry":{"type":"Point","coordinates":[116.8901548555001,0.6608693910000341]},"id":null}]}