{"type":"FeatureCollection","features":[{"type":"Feature","properties":{"parent_code":"9301","parent_name":"Merauke","code":"930110","name":"Elikobal","kind":"District"},"geometry":{"type":"Point","coordinates":[140.75732525900003,-7.534856978499931]},"id":930110},{"type":"Feature","properties":{"parent_code":"9301","parent_name":"Merauke","code":"930119","name":"Waan","kind":"District"},"geometry":{"type":"Point","coordinates":[137.95239892450007,-8.248743956499936]},"id":930119},{"type":"Feature","properties":{"parent_code":"9301","parent_name":"Merauke","code":"930113","name":"Animha","kind":"District"},"geometry":{"type":"Point","coordinates":[140.32427475350005,-7.914672919999958]},"id":930113},{"type":"Feature","properties":{"parent_code":"9301","parent_name":"Merauke","code":"930114","name":"Malind","kind":"District"},"geometry":{"type":"Point","coordinates":[140.1215505035001,-8.22044973149994]},"id":930114},{"type":"Feature","properties":{"parent_code":"9301","parent_name":"Merauke","code":"930111","name":"Kurik","kind":"District"},"geometry":{"type":"Point","coordinates":[140.26845507800004,-8.179571670999934]},"id":930111},{"type":"Feature","properties":{"parent_code":"9301","parent_name":"Merauke","code":"930112","name":"Naukenjerai","kind":"District"},"geometry":{"type":"Point","coordinates":[140.76872679100006,-8.840214918499953]},"id":930112},{"type":"Feature","properties":{"parent_code":"9301","parent_name":"Merauke","code":"930117","name":"Kaptel","kind":"District"},"geometry":{"type":"Point","coordinates":[139.99610100950002,-7.634409412999958]},"id":930117},{"type":"Feature","properties":{"parent_code":"9301","parent_name":"Merauke","code":"930118","name":"Tabonji","kind":"District"},"geometry":{"type":"Point","coordinates":[138.4797839415001,-7.641308533499966]},"id":930118},{"type":"Feature","properties":{"parent_code":"9301","parent_name":"Merauke","code":"930115","name":"Tubang","kind":"District"},"geometry":{"type":"Point","coordinates":[139.27628429450004,-7.872364293999965]},"id":930115},{"type":"Feature","properties":{"parent_code":"9301","parent_name":"Merauke","code":"930116","name":"Ngguti","kind":"District"},"geometry":{"type":"Point","coordinates":[139.60493906100004,-7.615487326499959]},"id":930116},{"type":"Feature","properties":{"parent_code":"9301","parent_name":"Merauke","code":"930120","name":"Ilwayab","kind":"District"},"geometry":{"type":"Point","coordinates":[139.05004118550005,-7.562754100999939]},"id":930120},{"type":"Feature","properties":{"parent_code":"9301","parent_name":"Merauke","code":"930121","name":"Padua","kind":"District"},"geometry":{"type":"Point","coordinates":[138.84155003850003,-7.658128493999953]},"id":930121},{"type":"Feature","properties":{"parent_code":"9301","parent_name":"Merauke","code":"930122","name":"Kontuar","kind":"District"},"geometry":{"type":"Point","coordinates":[138.12642803700004,-7.954840383499942]},"id":930122},{"type":"Feature","properties":{"parent_code":"9301","parent_name":"Merauke","code":"930108","name":"Sota","kind":"District"},"geometry":{"type":"Point","coordinates":[140.8420717850001,-8.224262308499931]},"id":930108},{"type":"Feature","properties":{"parent_code":"9301","parent_name":"Merauke","code":"930109","name":"Ulilin","kind":"District"},"geometry":{"type":"Point","coordinates":[140.64664124050006,-7.02342024099994]},"id":930109},{"type":"Feature","properties":{"parent_code":"9301","parent_name":"Merauke","code":"930102","name":"Muting","kind":"District"},"geometry":{"type":"Point","coordinates":[140.37193349000006,-7.3662190779999435]},"id":930102},{"type":"Feature","properties":{"parent_code":"9301","parent_name":"Merauke","code":"930103","name":"Okaba","kind":"District"},"geometry":{"type":"Point","coordinates":[139.59604498750008,-8.061414638999935]},"id":930103},{"type":"Feature","properties":{"parent_code":"9301","parent_name":"Merauke","code":"930101","name":"Merauke","kind":"District"},"geometry":{"type":"Point","coordinates":[140.5375067920001,-8.530418078999958]},"id":930101},{"type":"Feature","properties":{"parent_code":"9301","parent_name":"Merauke","code":"930106","name":"Tanah Miring","kind":"District"},"geometry":{"type":"Point","coordinates":[140.59932503500005,-8.251118356999967]},"id":930106},{"type":"Feature","properties":{"parent_code":"9301","parent_name":"Merauke","code":"930107","name":"Jagebob","kind":"District"},"geometry":{"type":"Point","coordinates":[140.75300561800003,-7.989670784999959]},"id":930107},{"type":"Feature","properties":{"parent_code":"9301","parent_name":"Merauke","code":"930104","name":"Kimaam","kind":"District"},"geometry":{"type":"Point","coordinates":[138.6661571720001,-8.005810836999956]},"id":930104},{"type":"Feature","properties":{"parent_code":"9301","parent_name":"Merauke","code":"930105","name":"Semangga","kind":"District"},"geometry":{"type":"Point","coordinates":[140.3902009035001,-8.386503188999939]},"id":930105}]}