{"type":"FeatureCollection","features":[{"type":"Feature","properties":{"parent_code":"1406","parent_name":"Rokan Hulu","code":"","name":"Tambusai","kind":"District"},"geometry":{"type":"Point","coordinates":[100.27904109600007,1.1143560235000505]},"id":null},{"type":"Feature","properties":{"parent_code":"1406","parent_name":"Rokan Hulu","code":"","name":"Kepenuhan","kind":"District"},"geometry":{"type":"Point","coordinates":[100.61452243600004,1.1319606250000334]},"id":null},{"type":"Feature","properties":{"parent_code":"1406","parent_name":"Rokan Hulu","code":"","name":"Rokan Iv Koto","kind":"District"},"geometry":{"type":"Point","coordinates":[100.36017187350004,0.5757523035000535]},"id":null},{"type":"Feature","properties":{"parent_code":"1406","parent_name":"Rokan Hulu","code":"","name":"Rambah","kind":"District"},"geometry":{"type":"Point","coordinates":[100.25333387700007,0.8338592075000405]},"id":null},{"type":"Feature","properties":{"parent_code":"1406","parent_name":"Rokan Hulu","code":"","name":"Rambah Hilir","kind":"District"},"geometry":{"type":"Point","coordinates":[100.35717472150006,0.9651448975000245]},"id":null},{"type":"Feature","properties":{"parent_code":"1406","parent_name":"Rokan Hulu","code":"","name":"Tambusai Utara","kind":"District"},"geometry":{"type":"Point","coordinates":[100.36008312650006,1.2801267110000372]},"id":null},{"type":"Feature","properties":{"parent_code":"1406","parent_name":"Rokan Hulu","code":"","name":"Kunto Darussalam","kind":"District"},"geometry":{"type":"Point","coordinates":[100.67867046550003,0.9061474945000616]},"id":null},{"type":"Feature","properties":{"parent_code":"1406","parent_name":"Rokan Hulu","code":"","name":"Rambah Samo","kind":"District"},"geometry":{"type":"Point","coordinates":[100.42459429800005,0.8233099715000665]},"id":null},{"type":"Feature","properties":{"parent_code":"1406","parent_name":"Rokan Hulu","code":"","name":"Ujung Batu","kind":"District"},"geometry":{"type":"Point","coordinates":[100.52116649350006,0.715701771500051]},"id":null},{"type":"Feature","properties":{"parent_code":"1406","parent_name":"Rokan Hulu","code":"","name":"Kepenuhan Hulu","kind":"District"},"geometry":{"type":"Point","coordinates":[100.50778499750007,1.003187946500049]},"id":null},{"type":"Feature","properties":{"parent_code":"1406","parent_name":"Rokan Hulu","code":"","name":"Pendalian Iv Koto","kind":"District"},"geometry":{"type":"Point","coordinates":[100.47770427200007,0.4975887240000535]},"id":null},{"type":"Feature","properties":{"parent_code":"1406","parent_name":"Rokan Hulu","code":"","name":"Bonai Darussalam","kind":"District"},"geometry":{"type":"Point","coordinates":[100.83484740450004,1.170297434000048]},"id":null},{"type":"Feature","properties":{"parent_code":"1406","parent_name":"Rokan Hulu","code":"","name":"Pagaran Tapah Darussalam","kind":"District"},"geometry":{"type":"Point","coordinates":[100.59881670750005,0.751056357000067]},"id":null},{"type":"Feature","properties":{"parent_code":"1406","parent_name":"Rokan Hulu","code":"","name":"Tandun","kind":"District"},"geometry":{"type":"Point","coordinates":[100.63843075900004,0.5692236100000515]},"id":null},{"type":"Feature","properties":{"parent_code":"1406","parent_name":"Rokan Hulu","code":"","name":"Kabun","kind":"District"},"geometry":{"type":"Point","coordinates":[100.75785197450006,0.480053389000062]},"id":null},{"type":"Feature","properties":{"parent_code":"1406","parent_name":"Rokan Hulu","code":"","name":"Bangun Purba","kind":"District"},"geometry":{"type":"Point","coordinates":[100.17728055650005,0.9119718495000485]},"id":null}]}