{"type":"FeatureCollection","features":[{"type":"Feature","properties":{"parent_code":"1407","parent_name":"Rokan Hilir","code":"","name":"Tanjung Medan","kind":"District"},"geometry":{"type":"Point","coordinates":[100.32107885900007,1.423828076000035]},"id":null},{"type":"Feature","properties":{"parent_code":"1407","parent_name":"Rokan Hilir","code":"","name":"Bagan Sinembah Raya","kind":"District"},"geometry":{"type":"Point","coordinates":[100.49653188850004,1.836759330000064]},"id":null},{"type":"Feature","properties":{"parent_code":"1407","parent_name":"Rokan Hilir","code":"","name":"Pekaitan","kind":"District"},"geometry":{"type":"Point","coordinates":[100.79937836850004,1.9898624235000284]},"id":null},{"type":"Feature","properties":{"parent_code":"1407","parent_name":"Rokan Hilir","code":"","name":"Kubu Babussalam","kind":"District"},"geometry":{"type":"Point","coordinates":[100.62159706250006,2.000702610500042]},"id":null},{"type":"Feature","properties":{"parent_code":"1407","parent_name":"Rokan Hilir","code":"","name":"Balai Jaya","kind":"District"},"geometry":{"type":"Point","coordinates":[100.57058397900008,1.7497179540000616]},"id":null},{"type":"Feature","properties":{"parent_code":"1407","parent_name":"Rokan Hilir","code":"","name":"Batu Hampar","kind":"District"},"geometry":{"type":"Point","coordinates":[100.98497064500006,1.95037379550007]},"id":null},{"type":"Feature","properties":{"parent_code":"1407","parent_name":"Rokan Hilir","code":"","name":"Rantau Kopar","kind":"District"},"geometry":{"type":"Point","coordinates":[101.01202921100005,1.4057303005000676]},"id":null},{"type":"Feature","properties":{"parent_code":"1407","parent_name":"Rokan Hilir","code":"","name":"Bangko Pusako","kind":"District"},"geometry":{"type":"Point","coordinates":[100.81462171100006,1.7141548935000515]},"id":null},{"type":"Feature","properties":{"parent_code":"1407","parent_name":"Rokan Hilir","code":"","name":"Simpang Kanan","kind":"District"},"geometry":{"type":"Point","coordinates":[100.37780979750005,1.8756980705000506]},"id":null},{"type":"Feature","properties":{"parent_code":"1407","parent_name":"Rokan Hilir","code":"","name":"Bagansinembah","kind":"District"},"geometry":{"type":"Point","coordinates":[100.44341112600006,1.66115598500005]},"id":null},{"type":"Feature","properties":{"parent_code":"1407","parent_name":"Rokan Hilir","code":"","name":"Pasir Limau Kapas","kind":"District"},"geometry":{"type":"Point","coordinates":[100.44799999700004,2.447741098000022]},"id":null},{"type":"Feature","properties":{"parent_code":"1407","parent_name":"Rokan Hilir","code":"","name":"Tanah Putih","kind":"District"},"geometry":{"type":"Point","coordinates":[101.04325320550006,1.4697172215000478]},"id":null},{"type":"Feature","properties":{"parent_code":"1407","parent_name":"Rokan Hilir","code":"","name":"Rimba Melintang","kind":"District"},"geometry":{"type":"Point","coordinates":[101.01880445050008,1.7790304010000284]},"id":null},{"type":"Feature","properties":{"parent_code":"1407","parent_name":"Rokan Hilir","code":"","name":"Tanah Putih Tanjung Melawan","kind":"District"},"geometry":{"type":"Point","coordinates":[101.12312709650007,1.7142937450000484]},"id":null},{"type":"Feature","properties":{"parent_code":"1407","parent_name":"Rokan Hilir","code":"","name":"Sinaboi","kind":"District"},"geometry":{"type":"Point","coordinates":[100.96500630300005,2.2019876430000522]},"id":null},{"type":"Feature","properties":{"parent_code":"1407","parent_name":"Rokan Hilir","code":"","name":"Pujud","kind":"District"},"geometry":{"type":"Point","coordinates":[100.66830087900007,1.4032479355000476]},"id":null},{"type":"Feature","properties":{"parent_code":"1407","parent_name":"Rokan Hilir","code":"","name":"Kubu","kind":"District"},"geometry":{"type":"Point","coordinates":[100.53578005350005,2.0643137505000477]},"id":null},{"type":"Feature","properties":{"parent_code":"1407","parent_name":"Rokan Hilir","code":"","name":"Bangko","kind":"District"},"geometry":{"type":"Point","coordinates":[100.87590470300006,2.148871813000028]},"id":null}]}