{"type":"FeatureCollection","features":[{"type":"Feature","properties":{"parent_code":"1408","parent_name":"Siak","code":"","name":"Dayun","kind":"District"},"geometry":{"type":"Point","coordinates":[102.10494197250009,0.652485345500054]},"id":null},{"type":"Feature","properties":{"parent_code":"1408","parent_name":"Siak","code":"","name":"Kerinci Kanan","kind":"District"},"geometry":{"type":"Point","coordinates":[101.78541129600006,0.48687908200003]},"id":null},{"type":"Feature","properties":{"parent_code":"1408","parent_name":"Siak","code":"","name":"Tualang","kind":"District"},"geometry":{"type":"Point","coordinates":[101.62152473750007,0.6406922520000364]},"id":null},{"type":"Feature","properties":{"parent_code":"1408","parent_name":"Siak","code":"","name":"Sungai Mandau","kind":"District"},"geometry":{"type":"Point","coordinates":[101.75033853800005,0.990248845500048]},"id":null},{"type":"Feature","properties":{"parent_code":"1408","parent_name":"Siak","code":"","name":"Bunga Raya","kind":"District"},"geometry":{"type":"Point","coordinates":[102.04782049000005,0.9842204605000404]},"id":null},{"type":"Feature","properties":{"parent_code":"1408","parent_name":"Siak","code":"","name":"Koto Gasib","kind":"District"},"geometry":{"type":"Point","coordinates":[101.79528722700005,0.751704192000062]},"id":null},{"type":"Feature","properties":{"parent_code":"1408","parent_name":"Siak","code":"","name":"Sungai Apit","kind":"District"},"geometry":{"type":"Point","coordinates":[102.49741983200005,0.914629713500034]},"id":null},{"type":"Feature","properties":{"parent_code":"1408","parent_name":"Siak","code":"","name":"Minas","kind":"District"},"geometry":{"type":"Point","coordinates":[101.47008870200008,0.8084275690000144]},"id":null},{"type":"Feature","properties":{"parent_code":"1408","parent_name":"Siak","code":"","name":"Siak","kind":"District"},"geometry":{"type":"Point","coordinates":[101.93223667700008,0.8931750665000491]},"id":null},{"type":"Feature","properties":{"parent_code":"1408","parent_name":"Siak","code":"","name":"Kandis","kind":"District"},"geometry":{"type":"Point","coordinates":[101.22457869500005,0.939807588000065]},"id":null},{"type":"Feature","properties":{"parent_code":"1408","parent_name":"Siak","code":"","name":"Mempura","kind":"District"},"geometry":{"type":"Point","coordinates":[102.05517605900008,0.8104938065000624]},"id":null},{"type":"Feature","properties":{"parent_code":"1408","parent_name":"Siak","code":"","name":"Pusako","kind":"District"},"geometry":{"type":"Point","coordinates":[102.15924290050006,0.9144898005000355]},"id":null},{"type":"Feature","properties":{"parent_code":"1408","parent_name":"Siak","code":"","name":"Lubuk Dalam","kind":"District"},"geometry":{"type":"Point","coordinates":[101.77516947350006,0.5967834210000544]},"id":null},{"type":"Feature","properties":{"parent_code":"1408","parent_name":"Siak","code":"","name":"Sabak Auh","kind":"District"},"geometry":{"type":"Point","coordinates":[102.10090538350003,1.127920764000066]},"id":null}]}