{"type":"FeatureCollection","features":[{"type":"Feature","properties":{"parent_code":"1471","parent_name":"Kota Pekanbaru","code":"","name":"Binawidya","kind":"District"},"geometry":{"type":"Point","coordinates":[101.38407075000006,0.49339246100004197]},"id":null},{"type":"Feature","properties":{"parent_code":"1471","parent_name":"Kota Pekanbaru","code":"","name":"Marpoyan Damai","kind":"District"},"geometry":{"type":"Point","coordinates":[101.43689801350007,0.4671518185000425]},"id":null},{"type":"Feature","properties":{"parent_code":"1471","parent_name":"Kota Pekanbaru","code":"","name":"Rumbai Barat","kind":"District"},"geometry":{"type":"Point","coordinates":[101.39932948200004,0.6343756400000585]},"id":null},{"type":"Feature","properties":{"parent_code":"1471","parent_name":"Kota Pekanbaru","code":"","name":"Bukit Raya","kind":"District"},"geometry":{"type":"Point","coordinates":[101.46365765400006,0.467115891000049]},"id":null},{"type":"Feature","properties":{"parent_code":"1471","parent_name":"Kota Pekanbaru","code":"","name":"Sukajadi","kind":"District"},"geometry":{"type":"Point","coordinates":[101.43849312600005,0.516725315000059]},"id":null},{"type":"Feature","properties":{"parent_code":"1471","parent_name":"Kota Pekanbaru","code":"","name":"Lima Puluh","kind":"District"},"geometry":{"type":"Point","coordinates":[101.45834300500007,0.54045375100003]},"id":null},{"type":"Feature","properties":{"parent_code":"1471","parent_name":"Kota Pekanbaru","code":"","name":"Senapelan","kind":"District"},"geometry":{"type":"Point","coordinates":[101.43767656400004,0.5367277935000625]},"id":null},{"type":"Feature","properties":{"parent_code":"1471","parent_name":"Kota Pekanbaru","code":"","name":"Pekanbaru Kota","kind":"District"},"geometry":{"type":"Point","coordinates":[101.44801823100008,0.5196828690000646]},"id":null},{"type":"Feature","properties":{"parent_code":"1471","parent_name":"Kota Pekanbaru","code":"","name":"Sail","kind":"District"},"geometry":{"type":"Point","coordinates":[101.46049411550004,0.5134533680000575]},"id":null},{"type":"Feature","properties":{"parent_code":"1471","parent_name":"Kota Pekanbaru","code":"","name":"Payung Sekaki","kind":"District"},"geometry":{"type":"Point","coordinates":[101.39720568000007,0.528479081000029]},"id":null},{"type":"Feature","properties":{"parent_code":"1471","parent_name":"Kota Pekanbaru","code":"","name":"Rumbai","kind":"District"},"geometry":{"type":"Point","coordinates":[101.39064994100005,0.5806098510000479]},"id":null},{"type":"Feature","properties":{"parent_code":"1471","parent_name":"Kota Pekanbaru","code":"","name":"Tenayan Raya","kind":"District"},"geometry":{"type":"Point","coordinates":[101.53631621300002,0.5398061170000406]},"id":null},{"type":"Feature","properties":{"parent_code":"1471","parent_name":"Kota Pekanbaru","code":"","name":"Rumbai Timur","kind":"District"},"geometry":{"type":"Point","coordinates":[101.51980125100005,0.6185704910000269]},"id":null},{"type":"Feature","properties":{"parent_code":"1471","parent_name":"Kota Pekanbaru","code":"","name":"Tuahmadani","kind":"District"},"geometry":{"type":"Point","coordinates":[101.38136479000008,0.4608870305000325]},"id":null},{"type":"Feature","properties":{"parent_code":"1471","parent_name":"Kota Pekanbaru","code":"","name":"Kulim","kind":"District"},"geometry":{"type":"Point","coordinates":[101.53601765300007,0.4737997185000325]},"id":null}]}